~VERSION INFORMATION
VERS .       2.0 : CWLS LOG ASCII STANDARD - VERSION 2.0
WRAP .        NO : ONE LINE PER DEPTH STEP
~WELL INFORMATION
STRT .M                2100.0000 : START DEPTH
STOP .M                2139.7500 : STOP DEPTH
STEP .M                   0.2500 : STEP
NULL .                 -999.2500 : NULL VALUE
COMP .       RIJNVELD ENERGIE BV : COMPANY
WELL .                    P12-07 : WELL
FLD  .                  RIJNVELD : FIELD
LOC  .                BLOCK P/12 : LOCATION
SRVC .      NOORDZEE WIRELINE BV : SERVICE COMPANY
DATE .               01-JUN-2003 : LOG DATE
UWI  .                   NLP1207 : UNIQUE WELL ID
CTRY .                        NL : COUNTRY
~CURVE INFORMATION
DEPT .M     : DEPTH
GR   .GAPI  : GAMMA RAY
DT   .US/F  : SONIC TRANSIT TIME
RHOB .G/C3  : BULK DENSITY
NPHI .V/V   : NEUTRON POROSITY
~ASCII
2100.0000  40.0000  90.0000  2.2000  0.1000
2100.2500  40.5000  90.2500  2.2100  0.1050
2100.5000  41.0000  90.5000  2.2200  0.1100
2100.7500  41.5000  90.7500  2.2300  0.1150
2101.0000  42.0000  91.0000  2.2400  0.1200
2101.2500  42.5000  91.2500  2.2500  0.1250
2101.5000  43.0000  91.5000  2.2600  0.1300
2101.7500  43.5000  91.7500  2.2700  0.1350
2102.0000  44.0000  92.0000  2.2800  0.1400
2102.2500  44.5000  92.2500  2.2900  0.1450
2102.5000  45.0000  92.5000  2.3000  0.1500
2102.7500  45.5000  92.7500  2.3100  0.1550
2103.0000  46.0000  93.0000  2.3200  0.1600
2103.2500  46.5000  93.2500  2.3300  0.1650
2103.5000  47.0000  93.5000  2.3400  0.1700
2103.7500  47.5000  93.7500  2.3500  0.1750
2104.0000  48.0000  94.0000  2.3600  0.1800
2104.2500  48.5000  94.2500  2.3700  0.1850
2104.5000  49.0000  94.5000  2.3800  0.1900
2104.7500  49.5000  94.7500  2.3900  0.1950
2105.0000  50.0000  95.0000  2.4000  0.1000
2105.2500  50.5000  95.2500  2.4100  0.1050
2105.5000  51.0000  95.5000  2.4200  0.1100
2105.7500  51.5000  95.7500  2.4300  0.1150
2106.0000  52.0000  96.0000  2.4400  0.1200
2106.2500  52.5000  96.2500  2.2000  0.1250
2106.5000  53.0000  96.5000  2.2100  0.1300
2106.7500  53.5000  96.7500  2.2200  0.1350
2107.0000  54.0000  97.0000  2.2300  0.1400
2107.2500  54.5000  97.2500  2.2400  0.1450
2107.5000  55.0000  97.5000  2.2500  0.1500
2107.7500  55.5000  97.7500  2.2600  0.1550
2108.0000  56.0000  98.0000  2.2700  0.1600
2108.2500  56.5000  98.2500  2.2800  0.1650
2108.5000  57.0000  98.5000  2.2900  0.1700
2108.7500  57.5000  98.7500  2.3000  0.1750
2109.0000  58.0000  99.0000  2.3100  0.1800
2109.2500  58.5000  99.2500  2.3200  0.1850
2109.5000  59.0000  99.5000  2.3300  0.1900
2109.7500  59.5000  99.7500  2.3400  0.1950
2110.0000  60.0000  90.0000  2.3500  0.1000
2110.2500  60.5000  90.2500  2.3600  0.1050
2110.5000  61.0000  90.5000  2.3700  0.1100
2110.7500  61.5000  90.7500  2.3800  0.1150
2111.0000  62.0000  91.0000  2.3900  0.1200
2111.2500  62.5000  91.2500  2.4000  0.1250
2111.5000  63.0000  91.5000  2.4100  0.1300
2111.7500  63.5000  91.7500  2.4200  0.1350
2112.0000  64.0000  92.0000  2.4300  0.1400
2112.2500  64.5000  92.2500  2.4400  0.1450
2112.5000  65.0000  92.5000  2.2000  0.1500
2112.7500  65.5000  92.7500  2.2100  0.1550
2113.0000  66.0000  93.0000  2.2200  0.1600
2113.2500  66.5000  93.2500  2.2300  0.1650
2113.5000  67.0000  93.5000  2.2400  0.1700
2113.7500  67.5000  93.7500  2.2500  0.1750
2114.0000  68.0000  94.0000  2.2600  0.1800
2114.2500  68.5000  94.2500  2.2700  0.1850
2114.5000  69.0000  94.5000  2.2800  0.1900
2114.7500  69.5000  94.7500  2.2900  0.1950
2115.0000  40.0000  95.0000  2.3000  0.1000
2115.2500  40.5000  95.2500  2.3100  0.1050
2115.5000  41.0000  95.5000  2.3200  0.1100
2115.7500  41.5000  95.7500  2.3300  0.1150
2116.0000  42.0000  96.0000  2.3400  0.1200
2116.2500  42.5000  96.2500  2.3500  0.1250
2116.5000  43.0000  96.5000  2.3600  0.1300
2116.7500  43.5000  96.7500  2.3700  0.1350
2117.0000  44.0000  97.0000  2.3800  0.1400
2117.2500  44.5000  97.2500  2.3900  0.1450
2117.5000  45.0000  97.5000  2.4000  0.1500
2117.7500  45.5000  97.7500  2.4100  0.1550
2118.0000  46.0000  98.0000  2.4200  0.1600
2118.2500  46.5000  98.2500  2.4300  0.1650
2118.5000  47.0000  98.5000  2.4400  0.1700
2118.7500  47.5000  98.7500  2.2000  0.1750
2119.0000  48.0000  99.0000  2.2100  0.1800
2119.2500  48.5000  99.2500  2.2200  0.1850
2119.5000  49.0000  99.5000  2.2300  0.1900
2119.7500  49.5000  99.7500  2.2400  0.1950
2120.0000  50.0000  90.0000  2.2500  0.1000
2120.2500  50.5000  90.2500  2.2600  0.1050
2120.5000  51.0000  90.5000  2.2700  0.1100
2120.7500  51.5000  90.7500  2.2800  0.1150
2121.0000  52.0000  91.0000  2.2900  0.1200
2121.2500  52.5000  91.2500  2.3000  0.1250
2121.5000  53.0000  91.5000  2.3100  0.1300
2121.7500  53.5000  91.7500  2.3200  0.1350
2122.0000  54.0000  92.0000  2.3300  0.1400
2122.2500  54.5000  92.2500  2.3400  0.1450
2122.5000  55.0000  92.5000  2.3500  0.1500
2122.7500  55.5000  92.7500  2.3600  0.1550
2123.0000  56.0000  93.0000  2.3700  0.1600
2123.2500  56.5000  93.2500  2.3800  0.1650
2123.5000  57.0000  93.5000  2.3900  0.1700
2123.7500  57.5000  93.7500  2.4000  0.1750
2124.0000  58.0000  94.0000  2.4100  0.1800
2124.2500  58.5000  94.2500  2.4200  0.1850
2124.5000  59.0000  94.5000  2.4300  0.1900
2124.7500  59.5000  94.7500  2.4400  0.1950
2125.0000  60.0000  95.0000  2.2000  0.1000
2125.2500  60.5000  95.2500  2.2100  0.1050
2125.5000  61.0000  95.5000  2.2200  0.1100
2125.7500  61.5000  95.7500  2.2300  0.1150
2126.0000  62.0000  96.0000  2.2400  0.1200
2126.2500  62.5000  96.2500  2.2500  0.1250
2126.5000  63.0000  96.5000  2.2600  0.1300
2126.7500  63.5000  96.7500  2.2700  0.1350
2127.0000  64.0000  97.0000  2.2800  0.1400
2127.2500  64.5000  97.2500  2.2900  0.1450
2127.5000  65.0000  97.5000  2.3000  0.1500
2127.7500  65.5000  97.7500  2.3100  0.1550
2128.0000  66.0000  98.0000  2.3200  0.1600
2128.2500  66.5000  98.2500  2.3300  0.1650
2128.5000  67.0000  98.5000  2.3400  0.1700
2128.7500  67.5000  98.7500  2.3500  0.1750
2129.0000  68.0000  99.0000  2.3600  0.1800
2129.2500  68.5000  99.2500  2.3700  0.1850
2129.5000  69.0000  99.5000  2.3800  0.1900
2129.7500  69.5000  99.7500  2.3900  0.1950
2130.0000  40.0000  90.0000  2.4000  0.1000
2130.2500  40.5000  90.2500  2.4100  0.1050
2130.5000  41.0000  90.5000  2.4200  0.1100
2130.7500  41.5000  90.7500  2.4300  0.1150
2131.0000  42.0000  91.0000  2.4400  0.1200
2131.2500  42.5000  91.2500  2.2000  0.1250
2131.5000  43.0000  91.5000  2.2100  0.1300
2131.7500  43.5000  91.7500  2.2200  0.1350
2132.0000  44.0000  92.0000  2.2300  0.1400
2132.2500  44.5000  92.2500  2.2400  0.1450
2132.5000  45.0000  92.5000  2.2500  0.1500
2132.7500  45.5000  92.7500  2.2600  0.1550
2133.0000  46.0000  93.0000  2.2700  0.1600
2133.2500  46.5000  93.2500  2.2800  0.1650
2133.5000  47.0000  93.5000  2.2900  0.1700
2133.7500  47.5000  93.7500  2.3000  0.1750
2134.0000  48.0000  94.0000  2.3100  0.1800
2134.2500  48.5000  94.2500  2.3200  0.1850
2134.5000  49.0000  94.5000  2.3300  0.1900
2134.7500  49.5000  94.7500  2.3400  0.1950
2135.0000  50.0000  95.0000  2.3500  0.1000
2135.2500  50.5000  95.2500  2.3600  0.1050
2135.5000  51.0000  95.5000  2.3700  0.1100
2135.7500  51.5000  95.7500  2.3800  0.1150
2136.0000  52.0000  96.0000  2.3900  0.1200
2136.2500  52.5000  96.2500  2.4000  0.1250
2136.5000  53.0000  96.5000  2.4100  0.1300
2136.7500  53.5000  96.7500  2.4200  0.1350
2137.0000  54.0000  97.0000  2.4300  0.1400
2137.2500  54.5000  97.2500  2.4400  0.1450
2137.5000  55.0000  97.5000  2.2000  0.1500
2137.7500  55.5000  97.7500  2.2100  0.1550
2138.0000  56.0000  98.0000  2.2200  0.1600
2138.2500  56.5000  98.2500  2.2300  0.1650
2138.5000  57.0000  98.5000  2.2400  0.1700
2138.7500  57.5000  98.7500  2.2500  0.1750
2139.0000  58.0000  99.0000  2.2600  0.1800
2139.2500  58.5000  99.2500  2.2700  0.1850
2139.5000  59.0000  99.5000  2.2800  0.1900
2139.7500  59.5000  99.7500  2.2900  0.1950
