~VERSION INFORMATION
VERS .       3.0 : CWLS LOG ASCII STANDARD - VERSION 3.0
WRAP .        NO : ONE LINE PER DEPTH STEP
DLM  .     COMMA : DELIMITING CHARACTER
~WELL INFORMATION
STRT .M                2400.0000 : START DEPTH
STOP .M                2424.8750 : STOP DEPTH
STEP .M                   0.1250 : STEP
NULL .                 -999.2500 : NULL VALUE
COMP .       RIJNVELD ENERGIE BV : COMPANY
WELL .                    P12-11 : WELL
FLD  .                  RIJNVELD : FIELD
LOC  .                BLOCK P/12 : LOCATION
SRVC .      DELTA PETROPHYSICS AS : SERVICE COMPANY
DATE .               01-JUN-2021 : LOG DATE
UWI  .                   NLP1211 : UNIQUE WELL ID
CTRY .                        NL : COUNTRY
~LOG_DEFINITION
DEPT .M     : DEPTH {F}
GR   .GAPI  : GAMMA RAY {F}
DT   .US/F  : SONIC TRANSIT TIME {F}
RHOB .G/C3  : BULK DENSITY {F}
NPHI .V/V   : NEUTRON POROSITY {F}
LITH .      : INTERPRETED LITHOLOGY {S}
~LOG_DATA | LOG_DEFINITION
2400.0000,40.0000,90.0000,2.2000,0.1000,SAND
2400.1250,40.5000,90.2500,2.2100,0.1050,"SHALE, SILTY"
2400.2500,41.0000,90.5000,2.2200,0.1100,LIMESTONE
2400.3750,41.5000,90.7500,2.2300,0.1150,SAND
2400.5000,42.0000,91.0000,2.2400,0.1200,SHALE
2400.6250,42.5000,91.2500,2.2500,0.1250,SAND
2400.7500,43.0000,91.5000,2.2600,0.1300,"SHALE, SILTY"
2400.8750,,91.7500,2.2700,0.1350,LIMESTONE
2401.0000,44.0000,92.0000,2.2800,0.1400,SAND
2401.1250,44.5000,92.2500,2.2900,0.1450,SHALE
2401.2500,45.0000,92.5000,2.3000,0.1500,SAND
2401.3750,45.5000,92.7500,2.3100,0.1550,"SHALE, SILTY"
2401.5000,46.0000,93.0000,2.3200,0.1600,LIMESTONE
2401.6250,46.5000,93.2500,2.3300,0.1650,SAND
2401.7500,47.0000,93.5000,2.3400,0.1700,
2401.8750,,93.7500,2.3500,0.1750,SAND
2402.0000,48.0000,94.0000,2.3600,0.1800,"SHALE, SILTY"
2402.1250,48.5000,94.2500,2.3700,0.1850,LIMESTONE
2402.2500,49.0000,94.5000,2.3800,0.1900,SAND
2402.3750,49.5000,94.7500,2.3900,0.1950,SHALE
2402.5000,50.0000,95.0000,2.4000,0.1000,SAND
2402.6250,50.5000,95.2500,2.4100,0.1050,"SHALE, SILTY"
2402.7500,51.0000,95.5000,2.4200,0.1100,LIMESTONE
2402.8750,,95.7500,2.4300,0.1150,SAND
2403.0000,52.0000,96.0000,2.4400,0.1200,SHALE
2403.1250,52.5000,96.2500,2.2000,0.1250,SAND
2403.2500,53.0000,96.5000,2.2100,0.1300,"SHALE, SILTY"
2403.3750,53.5000,96.7500,2.2200,0.1350,LIMESTONE
2403.5000,54.0000,97.0000,2.2300,0.1400,SAND
2403.6250,54.5000,97.2500,2.2400,0.1450,
2403.7500,55.0000,97.5000,2.2500,0.1500,SAND
2403.8750,,97.7500,2.2600,0.1550,"SHALE, SILTY"
2404.0000,56.0000,98.0000,2.2700,0.1600,LIMESTONE
2404.1250,56.5000,98.2500,2.2800,0.1650,SAND
2404.2500,57.0000,98.5000,2.2900,0.1700,SHALE
2404.3750,57.5000,98.7500,2.3000,0.1750,SAND
2404.5000,58.0000,99.0000,2.3100,0.1800,"SHALE, SILTY"
2404.6250,58.5000,99.2500,2.3200,0.1850,LIMESTONE
2404.7500,59.0000,99.5000,2.3300,0.1900,SAND
2404.8750,,99.7500,2.3400,0.1950,SHALE
2405.0000,60.0000,90.0000,2.3500,0.1000,SAND
2405.1250,60.5000,90.2500,2.3600,0.1050,"SHALE, SILTY"
2405.2500,61.0000,90.5000,2.3700,0.1100,LIMESTONE
2405.3750,61.5000,90.7500,2.3800,0.1150,SAND
2405.5000,62.0000,91.0000,2.3900,0.1200,
2405.6250,62.5000,91.2500,2.4000,0.1250,SAND
2405.7500,63.0000,91.5000,2.4100,0.1300,"SHALE, SILTY"
2405.8750,,91.7500,2.4200,0.1350,LIMESTONE
2406.0000,64.0000,92.0000,2.4300,0.1400,SAND
2406.1250,64.5000,92.2500,2.4400,0.1450,SHALE
2406.2500,65.0000,92.5000,2.2000,0.1500,SAND
2406.3750,65.5000,92.7500,2.2100,0.1550,"SHALE, SILTY"
2406.5000,66.0000,93.0000,2.2200,0.1600,LIMESTONE
2406.6250,66.5000,93.2500,2.2300,0.1650,SAND
2406.7500,67.0000,93.5000,2.2400,0.1700,SHALE
2406.8750,,93.7500,2.2500,0.1750,SAND
2407.0000,68.0000,94.0000,2.2600,0.1800,"SHALE, SILTY"
2407.1250,68.5000,94.2500,2.2700,0.1850,LIMESTONE
2407.2500,69.0000,94.5000,2.2800,0.1900,SAND
2407.3750,69.5000,94.7500,2.2900,0.1950,
2407.5000,40.0000,95.0000,2.3000,0.1000,SAND
2407.6250,40.5000,95.2500,2.3100,0.1050,"SHALE, SILTY"
2407.7500,41.0000,95.5000,2.3200,0.1100,LIMESTONE
2407.8750,,95.7500,2.3300,0.1150,SAND
2408.0000,42.0000,96.0000,2.3400,0.1200,SHALE
2408.1250,42.5000,96.2500,2.3500,0.1250,SAND
2408.2500,43.0000,96.5000,2.3600,0.1300,"SHALE, SILTY"
2408.3750,43.5000,96.7500,2.3700,0.1350,LIMESTONE
2408.5000,44.0000,97.0000,2.3800,0.1400,SAND
2408.6250,44.5000,97.2500,2.3900,0.1450,SHALE
2408.7500,45.0000,97.5000,2.4000,0.1500,SAND
2408.8750,,97.7500,2.4100,0.1550,"SHALE, SILTY"
2409.0000,46.0000,98.0000,2.4200,0.1600,LIMESTONE
2409.1250,46.5000,98.2500,2.4300,0.1650,SAND
2409.2500,47.0000,98.5000,2.4400,0.1700,
2409.3750,47.5000,98.7500,2.2000,0.1750,SAND
2409.5000,48.0000,99.0000,2.2100,0.1800,"SHALE, SILTY"
2409.6250,48.5000,99.2500,2.2200,0.1850,LIMESTONE
2409.7500,49.0000,99.5000,2.2300,0.1900,SAND
2409.8750,,99.7500,2.2400,0.1950,SHALE
2410.0000,50.0000,90.0000,2.2500,0.1000,SAND
2410.1250,50.5000,90.2500,2.2600,0.1050,"SHALE, SILTY"
2410.2500,51.0000,90.5000,2.2700,0.1100,LIMESTONE
2410.3750,51.5000,90.7500,2.2800,0.1150,SAND
2410.5000,52.0000,91.0000,2.2900,0.1200,SHALE
2410.6250,52.5000,91.2500,2.3000,0.1250,SAND
2410.7500,53.0000,91.5000,2.3100,0.1300,"SHALE, SILTY"
2410.8750,,91.7500,2.3200,0.1350,LIMESTONE
2411.0000,54.0000,92.0000,2.3300,0.1400,SAND
2411.1250,54.5000,92.2500,2.3400,0.1450,
2411.2500,55.0000,92.5000,2.3500,0.1500,SAND
2411.3750,55.5000,92.7500,2.3600,0.1550,"SHALE, SILTY"
2411.5000,56.0000,93.0000,2.3700,0.1600,LIMESTONE
2411.6250,56.5000,93.2500,2.3800,0.1650,SAND
2411.7500,57.0000,93.5000,2.3900,0.1700,SHALE
2411.8750,,93.7500,2.4000,0.1750,SAND
2412.0000,58.0000,94.0000,2.4100,0.1800,"SHALE, SILTY"
2412.1250,58.5000,94.2500,2.4200,0.1850,LIMESTONE
2412.2500,59.0000,94.5000,2.4300,0.1900,SAND
2412.3750,59.5000,94.7500,2.4400,0.1950,SHALE
2412.5000,60.0000,95.0000,2.2000,0.1000,SAND
2412.6250,60.5000,95.2500,2.2100,0.1050,"SHALE, SILTY"
2412.7500,61.0000,95.5000,2.2200,0.1100,LIMESTONE
2412.8750,,95.7500,2.2300,0.1150,SAND
2413.0000,62.0000,96.0000,2.2400,0.1200,
2413.1250,62.5000,96.2500,2.2500,0.1250,SAND
2413.2500,63.0000,96.5000,2.2600,0.1300,"SHALE, SILTY"
2413.3750,63.5000,96.7500,2.2700,0.1350,LIMESTONE
2413.5000,64.0000,97.0000,2.2800,0.1400,SAND
2413.6250,64.5000,97.2500,2.2900,0.1450,SHALE
2413.7500,65.0000,97.5000,2.3000,0.1500,SAND
2413.8750,,97.7500,2.3100,0.1550,"SHALE, SILTY"
2414.0000,66.0000,98.0000,2.3200,0.1600,LIMESTONE
2414.1250,66.5000,98.2500,2.3300,0.1650,SAND
2414.2500,67.0000,98.5000,2.3400,0.1700,SHALE
2414.3750,67.5000,98.7500,2.3500,0.1750,SAND
2414.5000,68.0000,99.0000,2.3600,0.1800,"SHALE, SILTY"
2414.6250,68.5000,99.2500,2.3700,0.1850,LIMESTONE
2414.7500,69.0000,99.5000,2.3800,0.1900,SAND
2414.8750,,99.7500,2.3900,0.1950,
2415.0000,40.0000,90.0000,2.4000,0.1000,SAND
2415.1250,40.5000,90.2500,2.4100,0.1050,"SHALE, SILTY"
2415.2500,41.0000,90.5000,2.4200,0.1100,LIMESTONE
2415.3750,41.5000,90.7500,2.4300,0.1150,SAND
2415.5000,42.0000,91.0000,2.4400,0.1200,SHALE
2415.6250,42.5000,91.2500,2.2000,0.1250,SAND
2415.7500,43.0000,91.5000,2.2100,0.1300,"SHALE, SILTY"
2415.8750,,91.7500,2.2200,0.1350,LIMESTONE
2416.0000,44.0000,92.0000,2.2300,0.1400,SAND
2416.1250,44.5000,92.2500,2.2400,0.1450,SHALE
2416.2500,45.0000,92.5000,2.2500,0.1500,SAND
2416.3750,45.5000,92.7500,2.2600,0.1550,"SHALE, SILTY"
2416.5000,46.0000,93.0000,2.2700,0.1600,LIMESTONE
2416.6250,46.5000,93.2500,2.2800,0.1650,SAND
2416.7500,47.0000,93.5000,2.2900,0.1700,
2416.8750,,93.7500,2.3000,0.1750,SAND
2417.0000,48.0000,94.0000,2.3100,0.1800,"SHALE, SILTY"
2417.1250,48.5000,94.2500,2.3200,0.1850,LIMESTONE
2417.2500,49.0000,94.5000,2.3300,0.1900,SAND
2417.3750,49.5000,94.7500,2.3400,0.1950,SHALE
2417.5000,50.0000,95.0000,2.3500,0.1000,SAND
2417.6250,50.5000,95.2500,2.3600,0.1050,"SHALE, SILTY"
2417.7500,51.0000,95.5000,2.3700,0.1100,LIMESTONE
2417.8750,,95.7500,2.3800,0.1150,SAND
2418.0000,52.0000,96.0000,2.3900,0.1200,SHALE
2418.1250,52.5000,96.2500,2.4000,0.1250,SAND
2418.2500,53.0000,96.5000,2.4100,0.1300,"SHALE, SILTY"
2418.3750,53.5000,96.7500,2.4200,0.1350,LIMESTONE
2418.5000,54.0000,97.0000,2.4300,0.1400,SAND
2418.6250,54.5000,97.2500,2.4400,0.1450,
2418.7500,55.0000,97.5000,2.2000,0.1500,SAND
2418.8750,,97.7500,2.2100,0.1550,"SHALE, SILTY"
2419.0000,56.0000,98.0000,2.2200,0.1600,LIMESTONE
2419.1250,56.5000,98.2500,2.2300,0.1650,SAND
2419.2500,57.0000,98.5000,2.2400,0.1700,SHALE
2419.3750,57.5000,98.7500,2.2500,0.1750,SAND
2419.5000,58.0000,99.0000,2.2600,0.1800,"SHALE, SILTY"
2419.6250,58.5000,99.2500,2.2700,0.1850,LIMESTONE
2419.7500,59.0000,99.5000,2.2800,0.1900,SAND
2419.8750,,99.7500,2.2900,0.1950,SHALE
2420.0000,60.0000,90.0000,2.3000,0.1000,SAND
2420.1250,60.5000,90.2500,2.3100,0.1050,"SHALE, SILTY"
2420.2500,61.0000,90.5000,2.3200,0.1100,LIMESTONE
2420.3750,61.5000,90.7500,2.3300,0.1150,SAND
2420.5000,62.0000,91.0000,2.3400,0.1200,
2420.6250,62.5000,91.2500,2.3500,0.1250,SAND
2420.7500,63.0000,91.5000,2.3600,0.1300,"SHALE, SILTY"
2420.8750,,91.7500,2.3700,0.1350,LIMESTONE
2421.0000,64.0000,92.0000,2.3800,0.1400,SAND
2421.1250,64.5000,92.2500,2.3900,0.1450,SHALE
2421.2500,65.0000,92.5000,2.4000,0.1500,SAND
