~VERSION INFORMATION
VERS .       1.2 : CWLS LOG ASCII STANDARD - VERSION 1.2
WRAP .        NO : ONE LINE PER DEPTH STEP
~WELL INFORMATION
STRT .M                1850.0000 : START DEPTH
STOP .M                1919.5000 : STOP DEPTH
STEP .M                   0.5000 : STEP
NULL .                 -999.2500 : NULL VALUE
COMP .                   COMPANY : RIJNVELD ENERGIE BV
WELL .                      WELL : P12-03
FLD  .                     FIELD : RIJNVELD
LOC  .                  LOCATION : BLOCK P/12
SRVC .           SERVICE COMPANY : SEISMOGRAPH SERVICE LTD
DATE .                  LOG DATE : 01-JUN-1984
UWI  .            UNIQUE WELL ID : NLP1203
CTRY .                   COUNTRY : NL
~CURVE INFORMATION
DEPT .M     : DEPTH
GR   .GAPI  : GAMMA RAY
DT   .US/F  : SONIC TRANSIT TIME
~ASCII
1850.0000  40.0000  90.0000
1850.5000  40.5000  90.2500
1851.0000  41.0000  90.5000
1851.5000  41.5000  90.7500
1852.0000  42.0000  91.0000
1852.5000  42.5000  91.2500
1853.0000  43.0000  91.5000
1853.5000  43.5000  91.7500
1854.0000  44.0000  92.0000
1854.5000  44.5000  92.2500
1855.0000  45.0000  92.5000
1855.5000  45.5000  92.7500
1856.0000  46.0000  93.0000
1856.5000  46.5000  93.2500
1857.0000  47.0000  93.5000
1857.5000  47.5000  93.7500
1858.0000  48.0000  94.0000
1858.5000  48.5000  94.2500
1859.0000  49.0000  94.5000
1859.5000  49.5000  94.7500
1860.0000  50.0000  95.0000
1860.5000  50.5000  95.2500
1861.0000  51.0000  95.5000
1861.5000  51.5000  95.7500
1862.0000  52.0000  96.0000
1862.5000  52.5000  96.2500
1863.0000  53.0000  96.5000
1863.5000  53.5000  96.7500
1864.0000  54.0000  97.0000
1864.5000  54.5000  97.2500
1865.0000  55.0000  97.5000
1865.5000  55.5000  97.7500
1866.0000  56.0000  98.0000
1866.5000  56.5000  98.2500
1867.0000  57.0000  98.5000
1867.5000  57.5000  98.7500
1868.0000  58.0000  99.0000
1868.5000  58.5000  99.2500
1869.0000  59.0000  99.5000
1869.5000  59.5000  99.7500
1870.0000  60.0000  90.0000
1870.5000  60.5000  90.2500
1871.0000  61.0000  90.5000
1871.5000  61.5000  90.7500
1872.0000  62.0000  91.0000
1872.5000  62.5000  91.2500
1873.0000  63.0000  91.5000
1873.5000  63.5000  91.7500
1874.0000  64.0000  92.0000
1874.5000  64.5000  92.2500
1875.0000  65.0000  92.5000
1875.5000  65.5000  92.7500
1876.0000  66.0000  93.0000
1876.5000  66.5000  93.2500
1877.0000  67.0000  93.5000
1877.5000  67.5000  93.7500
1878.0000  68.0000  94.0000
1878.5000  68.5000  94.2500
1879.0000  69.0000  94.5000
1879.5000  69.5000  94.7500
1880.0000  40.0000  95.0000
1880.5000  40.5000  95.2500
1881.0000  41.0000  95.5000
1881.5000  41.5000  95.7500
1882.0000  42.0000  96.0000
1882.5000  42.5000  96.2500
1883.0000  43.0000  96.5000
1883.5000  43.5000  96.7500
1884.0000  44.0000  97.0000
1884.5000  44.5000  97.2500
1885.0000  45.0000  97.5000
1885.5000  45.5000  97.7500
1886.0000  46.0000  98.0000
1886.5000  46.5000  98.2500
1887.0000  47.0000  98.5000
1887.5000  47.5000  98.7500
1888.0000  48.0000  99.0000
1888.5000  48.5000  99.2500
1889.0000  49.0000  99.5000
1889.5000  49.5000  99.7500
1890.0000  50.0000  90.0000
1890.5000  50.5000  90.2500
1891.0000  51.0000  90.5000
1891.5000  51.5000  90.7500
1892.0000  52.0000  91.0000
1892.5000  52.5000  91.2500
1893.0000  53.0000  91.5000
1893.5000  53.5000  91.7500
1894.0000  54.0000  92.0000
1894.5000  54.5000  92.2500
1895.0000  55.0000  92.5000
1895.5000  55.5000  92.7500
1896.0000  56.0000  93.0000
1896.5000  56.5000  93.2500
1897.0000  57.0000  93.5000
1897.5000  57.5000  93.7500
1898.0000  58.0000  94.0000
1898.5000  58.5000  94.2500
1899.0000  59.0000  94.5000
1899.5000  59.5000  94.7500
1900.0000  60.0000  95.0000
1900.5000  60.5000  95.2500
1901.0000  61.0000  95.5000
1901.5000  61.5000  95.7500
1902.0000  62.0000  96.0000
1902.5000  62.5000  96.2500
1903.0000  63.0000  96.5000
1903.5000  63.5000  96.7500
1904.0000  64.0000  97.0000
1904.5000  64.5000  97.2500
1905.0000  65.0000  97.5000
1905.5000  65.5000  97.7500
1906.0000  66.0000  98.0000
1906.5000  66.5000  98.2500
1907.0000  67.0000  98.5000
1907.5000  67.5000  98.7500
1908.0000  68.0000  99.0000
1908.5000  68.5000  99.2500
1909.0000  69.0000  99.5000
1909.5000  69.5000  99.7500
1910.0000  40.0000  90.0000
1910.5000  40.5000  90.2500
1911.0000  41.0000  90.5000
1911.5000  41.5000  90.7500
1912.0000  42.0000  91.0000
1912.5000  42.5000  91.2500
1913.0000  43.0000  91.5000
1913.5000  43.5000  91.7500
1914.0000  44.0000  92.0000
1914.5000  44.5000  92.2500
1915.0000  45.0000  92.5000
1915.5000  45.5000  92.7500
1916.0000  46.0000  93.0000
1916.5000  46.5000  93.2500
1917.0000  47.0000  93.5000
1917.5000  47.5000  93.7500
1918.0000  48.0000  94.0000
1918.5000  48.5000  94.2500
1919.0000  49.0000  94.5000
1919.5000  49.5000  94.7500
