~VERSION INFORMATION
VERS .       3.0 : CWLS LOG ASCII STANDARD - VERSION 3.0
WRAP .        NO : ONE LINE PER DEPTH STEP
DLM  .       TAB : DELIMITING CHARACTER
~WELL INFORMATION
STRT .M                2450.0000 : START DEPTH
STOP .M                2477.3750 : STOP DEPTH
STEP .M                   0.1250 : STEP
NULL .                 -999.2500 : NULL VALUE
COMP .       RIJNVELD ENERGIE BV : COMPANY
WELL .                    P12-14 : WELL
FLD  .                  RIJNVELD : FIELD
LOC  .                BLOCK P/12 : LOCATION
SRVC .      DELTA PETROPHYSICS AS : SERVICE COMPANY
DATE .               01-JUN-2024 : LOG DATE
UWI  .                   NLP1214 : UNIQUE WELL ID
CTRY .                        NL : COUNTRY
~LOG_DEFINITION
DEPT .M     : DEPTH {F}
GR   .GAPI  : GAMMA RAY {F}
DT   .US/F  : SONIC TRANSIT TIME {F}
RHOB .G/C3  : BULK DENSITY {F}
NPHI .V/V   : NEUTRON POROSITY {F}
LITH .      : INTERPRETED LITHOLOGY {S}
~LOG_DATA | LOG_DEFINITION
2450.0000	40.0000	90.0000	2.2000	0.1000	SAND
2450.1250	40.5000	90.2500	2.2100	0.1050	SHALE, SILTY
2450.2500	41.0000	90.5000	2.2200	0.1100	LIMESTONE
2450.3750	41.5000	90.7500	2.2300	0.1150	SAND
2450.5000	42.0000	91.0000	2.2400	0.1200	SHALE
2450.6250	42.5000	91.2500	2.2500	0.1250	SAND
2450.7500	43.0000	91.5000	2.2600	0.1300	SHALE, SILTY
2450.8750	43.5000	91.7500	2.2700	0.1350	LIMESTONE
2451.0000	44.0000	92.0000	2.2800	0.1400	SAND
2451.1250	44.5000	92.2500	2.2900	0.1450	SHALE
2451.2500	45.0000	92.5000	2.3000	0.1500	SAND
2451.3750	45.5000	92.7500	-999.2500	0.1550	SHALE, SILTY
2451.5000	46.0000	93.0000	2.3200	0.1600	LIMESTONE
2451.6250	46.5000	93.2500	2.3300	0.1650	SAND
2451.7500	47.0000	93.5000	2.3400	0.1700	SHALE
2451.8750	47.5000	93.7500	2.3500	0.1750	SAND
2452.0000	48.0000	94.0000	2.3600	0.1800	SHALE, SILTY
2452.1250	48.5000	94.2500	2.3700	0.1850	LIMESTONE
2452.2500	49.0000	94.5000	2.3800	0.1900	SAND
2452.3750	49.5000	94.7500	2.3900	0.1950	SHALE
2452.5000	50.0000	95.0000	2.4000	0.1000	SAND
2452.6250	50.5000	95.2500	2.4100	0.1050	SHALE, SILTY
2452.7500	51.0000	95.5000	2.4200	0.1100	LIMESTONE
2452.8750	51.5000	95.7500	-999.2500	0.1150	SAND
2453.0000	52.0000	96.0000	2.4400	0.1200	SHALE
2453.1250	52.5000	96.2500	2.2000	0.1250	SAND
2453.2500	53.0000	96.5000	2.2100	0.1300	SHALE, SILTY
2453.3750	53.5000	96.7500	2.2200	0.1350	LIMESTONE
2453.5000	54.0000	97.0000	2.2300	0.1400	SAND
2453.6250	54.5000	97.2500	2.2400	0.1450	SHALE
2453.7500	55.0000	97.5000	2.2500	0.1500	SAND
2453.8750	55.5000	97.7500	2.2600	0.1550	SHALE, SILTY
2454.0000	56.0000	98.0000	2.2700	0.1600	LIMESTONE
2454.1250	56.5000	98.2500	2.2800	0.1650	SAND
2454.2500	57.0000	98.5000	2.2900	0.1700	SHALE
2454.3750	57.5000	98.7500	-999.2500	0.1750	SAND
2454.5000	58.0000	99.0000	2.3100	0.1800	SHALE, SILTY
2454.6250	58.5000	99.2500	2.3200	0.1850	LIMESTONE
2454.7500	59.0000	99.5000	2.3300	0.1900	SAND
2454.8750	59.5000	99.7500	2.3400	0.1950	SHALE
2455.0000	60.0000	90.0000	2.3500	0.1000	SAND
2455.1250	60.5000	90.2500	2.3600	0.1050	SHALE, SILTY
2455.2500	61.0000	90.5000	2.3700	0.1100	LIMESTONE
2455.3750	61.5000	90.7500	2.3800	0.1150	SAND
2455.5000	62.0000	91.0000	2.3900	0.1200	SHALE
2455.6250	62.5000	91.2500	2.4000	0.1250	SAND
2455.7500	63.0000	91.5000	2.4100	0.1300	SHALE, SILTY
2455.8750	63.5000	91.7500	-999.2500	0.1350	LIMESTONE
2456.0000	64.0000	92.0000	2.4300	0.1400	SAND
2456.1250	64.5000	92.2500	2.4400	0.1450	SHALE
2456.2500	65.0000	92.5000	2.2000	0.1500	SAND
2456.3750	65.5000	92.7500	2.2100	0.1550	SHALE, SILTY
2456.5000	66.0000	93.0000	2.2200	0.1600	LIMESTONE
2456.6250	66.5000	93.2500	2.2300	0.1650	SAND
2456.7500	67.0000	93.5000	2.2400	0.1700	SHALE
2456.8750	67.5000	93.7500	2.2500	0.1750	SAND
2457.0000	68.0000	94.0000	2.2600	0.1800	SHALE, SILTY
2457.1250	68.5000	94.2500	2.2700	0.1850	LIMESTONE
2457.2500	69.0000	94.5000	2.2800	0.1900	SAND
2457.3750	69.5000	94.7500	-999.2500	0.1950	SHALE
2457.5000	40.0000	95.0000	2.3000	0.1000	SAND
2457.6250	40.5000	95.2500	2.3100	0.1050	SHALE, SILTY
2457.7500	41.0000	95.5000	2.3200	0.1100	LIMESTONE
2457.8750	41.5000	95.7500	2.3300	0.1150	SAND
2458.0000	42.0000	96.0000	2.3400	0.1200	SHALE
2458.1250	42.5000	96.2500	2.3500	0.1250	SAND
2458.2500	43.0000	96.5000	2.3600	0.1300	SHALE, SILTY
2458.3750	43.5000	96.7500	2.3700	0.1350	LIMESTONE
2458.5000	44.0000	97.0000	2.3800	0.1400	SAND
2458.6250	44.5000	97.2500	2.3900	0.1450	SHALE
2458.7500	45.0000	97.5000	2.4000	0.1500	SAND
2458.8750	45.5000	97.7500	-999.2500	0.1550	SHALE, SILTY
2459.0000	46.0000	98.0000	2.4200	0.1600	LIMESTONE
2459.1250	46.5000	98.2500	2.4300	0.1650	SAND
2459.2500	47.0000	98.5000	2.4400	0.1700	SHALE
2459.3750	47.5000	98.7500	2.2000	0.1750	SAND
2459.5000	48.0000	99.0000	2.2100	0.1800	SHALE, SILTY
2459.6250	48.5000	99.2500	2.2200	0.1850	LIMESTONE
2459.7500	49.0000	99.5000	2.2300	0.1900	SAND
2459.8750	49.5000	99.7500	2.2400	0.1950	SHALE
2460.0000	50.0000	90.0000	2.2500	0.1000	SAND
2460.1250	50.5000	90.2500	2.2600	0.1050	SHALE, SILTY
2460.2500	51.0000	90.5000	2.2700	0.1100	LIMESTONE
2460.3750	51.5000	90.7500	-999.2500	0.1150	SAND
2460.5000	52.0000	91.0000	2.2900	0.1200	SHALE
2460.6250	52.5000	91.2500	2.3000	0.1250	SAND
2460.7500	53.0000	91.5000	2.3100	0.1300	SHALE, SILTY
2460.8750	53.5000	91.7500	2.3200	0.1350	LIMESTONE
2461.0000	54.0000	92.0000	2.3300	0.1400	SAND
2461.1250	54.5000	92.2500	2.3400	0.1450	SHALE
2461.2500	55.0000	92.5000	2.3500	0.1500	SAND
2461.3750	55.5000	92.7500	2.3600	0.1550	SHALE, SILTY
2461.5000	56.0000	93.0000	2.3700	0.1600	LIMESTONE
2461.6250	56.5000	93.2500	2.3800	0.1650	SAND
2461.7500	57.0000	93.5000	2.3900	0.1700	SHALE
2461.8750	57.5000	93.7500	-999.2500	0.1750	SAND
2462.0000	58.0000	94.0000	2.4100	0.1800	SHALE, SILTY
2462.1250	58.5000	94.2500	2.4200	0.1850	LIMESTONE
2462.2500	59.0000	94.5000	2.4300	0.1900	SAND
2462.3750	59.5000	94.7500	2.4400	0.1950	SHALE
2462.5000	60.0000	95.0000	2.2000	0.1000	SAND
2462.6250	60.5000	95.2500	2.2100	0.1050	SHALE, SILTY
2462.7500	61.0000	95.5000	2.2200	0.1100	LIMESTONE
2462.8750	61.5000	95.7500	2.2300	0.1150	SAND
2463.0000	62.0000	96.0000	2.2400	0.1200	SHALE
2463.1250	62.5000	96.2500	2.2500	0.1250	SAND
2463.2500	63.0000	96.5000	2.2600	0.1300	SHALE, SILTY
2463.3750	63.5000	96.7500	-999.2500	0.1350	LIMESTONE
2463.5000	64.0000	97.0000	2.2800	0.1400	SAND
2463.6250	64.5000	97.2500	2.2900	0.1450	SHALE
2463.7500	65.0000	97.5000	2.3000	0.1500	SAND
2463.8750	65.5000	97.7500	2.3100	0.1550	SHALE, SILTY
2464.0000	66.0000	98.0000	2.3200	0.1600	LIMESTONE
2464.1250	66.5000	98.2500	2.3300	0.1650	SAND
2464.2500	67.0000	98.5000	2.3400	0.1700	SHALE
2464.3750	67.5000	98.7500	2.3500	0.1750	SAND
2464.5000	68.0000	99.0000	2.3600	0.1800	SHALE, SILTY
2464.6250	68.5000	99.2500	2.3700	0.1850	LIMESTONE
2464.7500	69.0000	99.5000	2.3800	0.1900	SAND
2464.8750	69.5000	99.7500	-999.2500	0.1950	SHALE
2465.0000	40.0000	90.0000	2.4000	0.1000	SAND
2465.1250	40.5000	90.2500	2.4100	0.1050	SHALE, SILTY
2465.2500	41.0000	90.5000	2.4200	0.1100	LIMESTONE
2465.3750	41.5000	90.7500	2.4300	0.1150	SAND
2465.5000	42.0000	91.0000	2.4400	0.1200	SHALE
2465.6250	42.5000	91.2500	2.2000	0.1250	SAND
2465.7500	43.0000	91.5000	2.2100	0.1300	SHALE, SILTY
2465.8750	43.5000	91.7500	2.2200	0.1350	LIMESTONE
2466.0000	44.0000	92.0000	2.2300	0.1400	SAND
2466.1250	44.5000	92.2500	2.2400	0.1450	SHALE
2466.2500	45.0000	92.5000	2.2500	0.1500	SAND
2466.3750	45.5000	92.7500	-999.2500	0.1550	SHALE, SILTY
2466.5000	46.0000	93.0000	2.2700	0.1600	LIMESTONE
2466.6250	46.5000	93.2500	2.2800	0.1650	SAND
2466.7500	47.0000	93.5000	2.2900	0.1700	SHALE
2466.8750	47.5000	93.7500	2.3000	0.1750	SAND
2467.0000	48.0000	94.0000	2.3100	0.1800	SHALE, SILTY
2467.1250	48.5000	94.2500	2.3200	0.1850	LIMESTONE
2467.2500	49.0000	94.5000	2.3300	0.1900	SAND
2467.3750	49.5000	94.7500	2.3400	0.1950	SHALE
2467.5000	50.0000	95.0000	2.3500	0.1000	SAND
2467.6250	50.5000	95.2500	2.3600	0.1050	SHALE, SILTY
2467.7500	51.0000	95.5000	2.3700	0.1100	LIMESTONE
2467.8750	51.5000	95.7500	-999.2500	0.1150	SAND
2468.0000	52.0000	96.0000	2.3900	0.1200	SHALE
2468.1250	52.5000	96.2500	2.4000	0.1250	SAND
2468.2500	53.0000	96.5000	2.4100	0.1300	SHALE, SILTY
2468.3750	53.5000	96.7500	2.4200	0.1350	LIMESTONE
2468.5000	54.0000	97.0000	2.4300	0.1400	SAND
2468.6250	54.5000	97.2500	2.4400	0.1450	SHALE
2468.7500	55.0000	97.5000	2.2000	0.1500	SAND
2468.8750	55.5000	97.7500	2.2100	0.1550	SHALE, SILTY
2469.0000	56.0000	98.0000	2.2200	0.1600	LIMESTONE
2469.1250	56.5000	98.2500	2.2300	0.1650	SAND
2469.2500	57.0000	98.5000	2.2400	0.1700	SHALE
2469.3750	57.5000	98.7500	-999.2500	0.1750	SAND
2469.5000	58.0000	99.0000	2.2600	0.1800	SHALE, SILTY
2469.6250	58.5000	99.2500	2.2700	0.1850	LIMESTONE
2469.7500	59.0000	99.5000	2.2800	0.1900	SAND
2469.8750	59.5000	99.7500	2.2900	0.1950	SHALE
2470.0000	60.0000	90.0000	2.3000	0.1000	SAND
2470.1250	60.5000	90.2500	2.3100	0.1050	SHALE, SILTY
2470.2500	61.0000	90.5000	2.3200	0.1100	LIMESTONE
2470.3750	61.5000	90.7500	2.3300	0.1150	SAND
2470.5000	62.0000	91.0000	2.3400	0.1200	SHALE
2470.6250	62.5000	91.2500	2.3500	0.1250	SAND
2470.7500	63.0000	91.5000	2.3600	0.1300	SHALE, SILTY
