~VERSION INFORMATION
VERS .       2.0 : CWLS LOG ASCII STANDARD - VERSION 2.0
WRAP .        NO : ONE LINE PER DEPTH STEP
~WELL INFORMATION
STRT .M                2150.0000 : START DEPTH
STOP .M                2194.7500 : STOP DEPTH
STEP .M                   0.2500 : STEP
NULL .                 -999.2500 : NULL VALUE
COMP .       RIJNVELD ENERGIE BV : COMPANY
WELL .                    P12-09 : WELL
FLD  .                  RIJNVELD : FIELD
LOC  .                BLOCK P/12 : LOCATION
SRVC .      NOORDZEE WIRELINE BV : SERVICE COMPANY
DATE .               01-JUN-2007 : LOG DATE
UWI  .                   NLP1209 : UNIQUE WELL ID
CTRY .                        NL : COUNTRY
~CURVE INFORMATION
DEPT .M     : DEPTH
GR   .GAPI  : GAMMA RAY
DT   .US/F  : SONIC TRANSIT TIME
RHOB .G/C3  : BULK DENSITY
NPHI .V/V   : NEUTRON POROSITY
~ASCII
2150.0000  40.0000  90.0000  2.2000  0.1000
2150.2500  40.5000  90.2500  2.2100  0.1050
2150.5000  41.0000  90.5000  2.2200  0.1100
2150.7500  41.5000  90.7500  2.2300  0.1150
2151.0000  42.0000  91.0000  2.2400  0.1200
2151.2500  42.5000  91.2500  2.2500  0.1250
2151.5000  43.0000  91.5000  2.2600  0.1300
2151.7500  43.5000  91.7500  2.2700  0.1350
2152.0000  44.0000  92.0000  2.2800  0.1400
2152.2500  44.5000  92.2500  2.2900  0.1450
2152.5000  45.0000  92.5000  2.3000  0.1500
2152.7500  45.5000  92.7500  2.3100  0.1550
2153.0000  46.0000  93.0000  2.3200  0.1600
2153.2500  46.5000  93.2500  2.3300  0.1650
2153.5000  47.0000  93.5000  2.3400  0.1700
2153.7500  47.5000  93.7500  2.3500  0.1750
2154.0000  48.0000  94.0000  2.3600  0.1800
2154.2500  48.5000  94.2500  2.3700  0.1850
2154.5000  49.0000  94.5000  2.3800  0.1900
2154.7500  49.5000  94.7500  2.3900  0.1950
2155.0000  50.0000  95.0000  2.4000  0.1000
2155.2500  50.5000  95.2500  2.4100  0.1050
2155.5000  51.0000  95.5000  2.4200  0.1100
2155.7500  51.5000  95.7500  2.4300  0.1150
2156.0000  52.0000  96.0000  2.4400  0.1200
2156.2500  52.5000  96.2500  2.2000  0.1250
2156.5000  53.0000  96.5000  2.2100  0.1300
2156.7500  53.5000  96.7500  2.2200  0.1350
2157.0000  54.0000  97.0000  2.2300  0.1400
2157.2500  54.5000  97.2500  2.2400  0.1450
2157.5000  55.0000  97.5000  2.2500  0.1500
2157.7500  55.5000  97.7500  2.2600  0.1550
2158.0000  56.0000  98.0000  2.2700  0.1600
2158.2500  56.5000  98.2500  2.2800  0.1650
2158.5000  57.0000  98.5000  2.2900  0.1700
2158.7500  57.5000  98.7500  2.3000  0.1750
2159.0000  58.0000  99.0000  2.3100  0.1800
2159.2500  58.5000  99.2500  2.3200  0.1850
2159.5000  59.0000  99.5000  2.3300  0.1900
2159.7500  59.5000  99.7500  2.3400  0.1950
2160.0000  60.0000  90.0000  2.3500  0.1000
2160.2500  60.5000  90.2500  2.3600  0.1050
2160.5000  61.0000  90.5000  2.3700  0.1100
2160.7500  61.5000  90.7500  2.3800  0.1150
2161.0000  62.0000  91.0000  2.3900  0.1200
2161.2500  62.5000  91.2500  2.4000  0.1250
2161.5000  63.0000  91.5000  2.4100  0.1300
2161.7500  63.5000  91.7500  2.4200  0.1350
2162.0000  64.0000  92.0000  2.4300  0.1400
2162.2500  64.5000  92.2500  2.4400  0.1450
2162.5000  65.0000  92.5000  2.2000  0.1500
2162.7500  65.5000  92.7500  2.2100  0.1550
2163.0000  66.0000  93.0000  2.2200  0.1600
2163.2500  66.5000  93.2500  2.2300  0.1650
2163.5000  67.0000  93.5000  2.2400  0.1700
2163.7500  67.5000  93.7500  2.2500  0.1750
2164.0000  68.0000  94.0000  2.2600  0.1800
2164.2500  68.5000  94.2500  2.2700  0.1850
2164.5000  69.0000  94.5000  2.2800  0.1900
2164.7500  69.5000  94.7500  2.2900  0.1950
2165.0000  40.0000  95.0000  2.3000  0.1000
2165.2500  40.5000  95.2500  2.3100  0.1050
2165.5000  41.0000  95.5000  2.3200  0.1100
2165.7500  41.5000  95.7500  2.3300  0.1150
2166.0000  42.0000  96.0000  2.3400  0.1200
2166.2500  42.5000  96.2500  2.3500  0.1250
2166.5000  43.0000  96.5000  2.3600  0.1300
2166.7500  43.5000  96.7500  2.3700  0.1350
2167.0000  44.0000  97.0000  2.3800  0.1400
2167.2500  44.5000  97.2500  2.3900  0.1450
2167.5000  45.0000  97.5000  2.4000  0.1500
2167.7500  45.5000  97.7500  2.4100  0.1550
2168.0000  46.0000  98.0000  2.4200  0.1600
2168.2500  46.5000  98.2500  2.4300  0.1650
2168.5000  47.0000  98.5000  2.4400  0.1700
2168.7500  47.5000  98.7500  2.2000  0.1750
2169.0000  48.0000  99.0000  2.2100  0.1800
2169.2500  48.5000  99.2500  2.2200  0.1850
2169.5000  49.0000  99.5000  2.2300  0.1900
2169.7500  49.5000  99.7500  2.2400  0.1950
2170.0000  50.0000  90.0000  2.2500  0.1000
2170.2500  50.5000  90.2500  2.2600  0.1050
2170.5000  51.0000  90.5000  2.2700  0.1100
2170.7500  51.5000  90.7500  2.2800  0.1150
2171.0000  52.0000  91.0000  2.2900  0.1200
2171.2500  52.5000  91.2500  2.3000  0.1250
2171.5000  53.0000  91.5000  2.3100  0.1300
2171.7500  53.5000  91.7500  2.3200  0.1350
2172.0000  54.0000  92.0000  2.3300  0.1400
2172.2500  54.5000  92.2500  2.3400  0.1450
2172.5000  55.0000  92.5000  2.3500  0.1500
2172.7500  55.5000  92.7500  2.3600  0.1550
2173.0000  56.0000  93.0000  2.3700  0.1600
2173.2500  56.5000  93.2500  2.3800  0.1650
2173.5000  57.0000  93.5000  2.3900  0.1700
2173.7500  57.5000  93.7500  2.4000  0.1750
2174.0000  58.0000  94.0000  2.4100  0.1800
2174.2500  58.5000  94.2500  2.4200  0.1850
2174.5000  59.0000  94.5000  2.4300  0.1900
2174.7500  59.5000  94.7500  2.4400  0.1950
2175.0000  60.0000  95.0000  2.2000  0.1000
2175.2500  60.5000  95.2500  2.2100  0.1050
2175.5000  61.0000  95.5000  2.2200  0.1100
2175.7500  61.5000  95.7500  2.2300  0.1150
2176.0000  62.0000  96.0000  2.2400  0.1200
2176.2500  62.5000  96.2500  2.2500  0.1250
2176.5000  63.0000  96.5000  2.2600  0.1300
2176.7500  63.5000  96.7500  2.2700  0.1350
2177.0000  64.0000  97.0000  2.2800  0.1400
2177.2500  64.5000  97.2500  2.2900  0.1450
2177.5000  65.0000  97.5000  2.3000  0.1500
2177.7500  65.5000  97.7500  2.3100  0.1550
2178.0000  66.0000  98.0000  2.3200  0.1600
2178.2500  66.5000  98.2500  2.3300  0.1650
2178.5000  67.0000  98.5000  2.3400  0.1700
2178.7500  67.5000  98.7500  2.3500  0.1750
2179.0000  68.0000  99.0000  2.3600  0.1800
2179.2500  68.5000  99.2500  2.3700  0.1850
2179.5000  69.0000  99.5000  2.3800  0.1900
2179.7500  69.5000  99.7500  2.3900  0.1950
2180.0000  40.0000  90.0000  2.4000  0.1000
2180.2500  40.5000  90.2500  2.4100  0.1050
2180.5000  41.0000  90.5000  2.4200  0.1100
2180.7500  41.5000  90.7500  2.4300  0.1150
2181.0000  42.0000  91.0000  2.4400  0.1200
2181.2500  42.5000  91.2500  2.2000  0.1250
2181.5000  43.0000  91.5000  2.2100  0.1300
2181.7500  43.5000  91.7500  2.2200  0.1350
2182.0000  44.0000  92.0000  2.2300  0.1400
2182.2500  44.5000  92.2500  2.2400  0.1450
2182.5000  45.0000  92.5000  2.2500  0.1500
2182.7500  45.5000  92.7500  2.2600  0.1550
2183.0000  46.0000  93.0000  2.2700  0.1600
2183.2500  46.5000  93.2500  2.2800  0.1650
2183.5000  47.0000  93.5000  2.2900  0.1700
2183.7500  47.5000  93.7500  2.3000  0.1750
2184.0000  48.0000  94.0000  2.3100  0.1800
2184.2500  48.5000  94.2500  2.3200  0.1850
2184.5000  49.0000  94.5000  2.3300  0.1900
2184.7500  49.5000  94.7500  2.3400  0.1950
2185.0000  50.0000  95.0000  2.3500  0.1000
2185.2500  50.5000  95.2500  2.3600  0.1050
2185.5000  51.0000  95.5000  2.3700  0.1100
2185.7500  51.5000  95.7500  2.3800  0.1150
2186.0000  52.0000  96.0000  2.3900  0.1200
2186.2500  52.5000  96.2500  2.4000  0.1250
2186.5000  53.0000  96.5000  2.4100  0.1300
2186.7500  53.5000  96.7500  2.4200  0.1350
2187.0000  54.0000  97.0000  2.4300  0.1400
2187.2500  54.5000  97.2500  2.4400  0.1450
2187.5000  55.0000  97.5000  2.2000  0.1500
2187.7500  55.5000  97.7500  2.2100  0.1550
2188.0000  56.0000  98.0000  2.2200  0.1600
2188.2500  56.5000  98.2500  2.2300  0.1650
2188.5000  57.0000  98.5000  2.2400  0.1700
2188.7500  57.5000  98.7500  2.2500  0.1750
2189.0000  58.0000  99.0000  2.2600  0.1800
2189.2500  58.5000  99.2500  2.2700  0.1850
2189.5000  59.0000  99.5000  2.2800  0.1900
2189.7500  59.5000  99.7500  2.2900  0.1950
2190.0000  60.0000  90.0000  2.3000  0.1000
2190.2500  60.5000  90.2500  2.3100  0.1050
2190.5000  61.0000  90.5000  2.3200  0.1100
2190.7500  61.5000  90.7500  2.3300  0.1150
2191.0000  62.0000  91.0000  2.3400  0.1200
2191.2500  62.5000  91.2500  2.3500  0.1250
2191.5000  63.0000  91.5000  2.3600  0.1300
2191.7500  63.5000  91.7500  2.3700  0.1350
2192.0000  64.0000  92.0000  2.3800  0.1400
2192.2500  64.5000  92.2500  2.3900  0.1450
2192.5000  65.0000  92.5000  2.4000  0.1500
2192.7500  65.5000  92.7500  2.4100  0.1550
2193.0000  66.0000  93.0000  2.4200  0.1600
2193.2500  66.5000  93.2500  2.4300  0.1650
2193.5000  67.0000  93.5000  2.4400  0.1700
2193.7500  67.5000  93.7500  2.2000  0.1750
2194.0000  68.0000  94.0000  2.2100  0.1800
2194.2500  68.5000  94.2500  2.2200  0.1850
2194.5000  69.0000  94.5000  2.2300  0.1900
2194.7500  69.5000  94.7500  2.2400  0.1950
