# LAS format data
~Version Information
VERS.     2.00: CWLS LOG ASCII STANDARD - VERSION 2.0
WRAP.       NO: ONE LINE PER DEPTH STEP
~Well Information
#MNEM   .UNITS    DATA                           DESCRIPTION
#----   ------    ----                           -----------
STRT    .M        1305.9001                     :First Index Value
STOP    .M        1367.8002                     :Last Index Value
STEP    .M        0.1000                        :Frame Spacing
NULL    .         -999.2500                     :Absent Value
WELL    .         MED-01                   :Well Name   
FLD     .         WASSENAAR                     :Field Name  
CNTY    .                                       :County
STAT    .                                       :State
CTRY    .                                       :Country
LOC     .                                       :Location
API     .                                       :API Number
DATE    .                                       :Date
COMP    .         NAM                           :Company Name
SRVC    .                                       :Service Company
~Parameter Information
#MNEM   .UNITS    VALUE                          DESCRIPTION
#----   ------    -----                          -----------
TDL     .M        1726.00000                    :Total Depth (Logger)
TDD     .M        1726.00000                    :Total Depth (Driller)   
UBID    .         1601                          :Unique Borehole Id  
PDAT    .         Mean Sea Level                :Permanent Datum 
EPD     .M           0.00000                    :Elevation of Permanent Datum (PDAT) above Mean Sea Level
LMF     .         Rotary Table                  :Logging Measured From (Name of Logging Elevation Reference) 
APD     .M           8.68000                    :Elevation of Depth Reference (LMF) Above Permanent Datum
~Curve Information
#MNEM   .UNITS    API CODE                       CURVE DESCRIPTION
#----   ------    --------                       -----------------
DEPT    .M                                      :1     Index curve
GR      .GAPI                                   :2     SNAM  
NPHI    .V/V                                    :3     SNAM  
~Ascii Log Data
# ...
    1325.0001    100.671646      0.200587
    1325.1001     99.413879      0.189276
    1325.2001     95.991806      0.180103
    1325.3001     90.891281      0.175937
    1325.4001     85.368332      0.177882
    1325.5001     81.090714      0.184437
    1325.6001     78.915161      0.192720
    1325.7001     79.074677      0.201514
    1325.8001     79.543411      0.210519
    1325.9001     78.184006      0.217793
    1326.0001     74.029266      0.221243
    1326.1001     69.795746      0.220981
    1326.2001     68.445740      0.220880
    1326.3001     72.288727      0.220710
    1326.4001     79.640060      0.212191
    1326.5001     88.939041      0.205741
    1326.6001     96.773407      0.206543
    1326.7001    101.427139      0.204954
    1326.8001    101.394348      0.204596
    1326.9001     98.353699      0.208520
    1327.0001     94.888977      0.211385
    1327.1001     92.062531      0.211946
    1327.2001     89.562836      0.207798
    1327.3001     86.461838      0.197260
    1327.4001     81.899109      0.183996
    1327.5001     75.343964      0.172207
    1327.6001     67.777359      0.167106
    1327.7001     60.922638      0.169585
    1327.8001     55.845261      0.178250
    1327.9001     53.016716      0.184450
    1328.0001     52.486320      0.184278
    1328.1001     53.837814      0.176352
    1328.2001     56.243660      0.166571
    1328.3001     58.525757      0.158573
    1328.4001     59.342804      0.154411
    1328.5001     58.095558      0.151572
    1328.6001     55.148338      0.147539
    1328.7001     51.766869      0.142830
    1328.8001     48.868614      0.141807
    1328.9001     46.937454      0.147402
    1329.0001     45.638344      0.160313
    1329.1001     44.168739      0.178998
    1329.2001     42.114357      0.195594
    1329.3001     39.639526      0.201637
    1329.4001     36.892113      0.198136
    1329.5001     34.311203      0.189290
    1329.6001     32.426750      0.179297
    1329.7001     31.505756      0.171530
    1329.8001     31.612820      0.168032
    1329.9001     32.472832      0.169061
    1330.0001     33.505951      0.174415
    1330.1001     34.039093      0.183182
    1330.2001     33.673691      0.193906
    1330.3001     32.455399      0.204158
    1330.4001     31.006931      0.210614
    1330.5001     30.112064      0.211724
    1330.6001     30.120892      0.209544
    1330.7001     30.790634      0.207227
    1330.8001     31.497074      0.206571
    1330.9001     31.502094      0.208499
    1331.0001     30.454750      0.212655
    1331.1001     28.680130      0.216487
    1331.2001     26.858501      0.216958
    1331.3001     25.639511      0.213362
    1331.4001     25.570026      0.207713
    1331.5001     26.954056      0.202248
    1331.6001     29.706951      0.197155
    1331.7001     33.437889      0.191268
    1331.8001     37.547455      0.183947
    1331.9001     41.227783      0.176009
    1332.0001     43.859779      0.169529
    1332.1001     45.558754      0.166941
    1332.2001     47.105827      0.168795
    1332.3001     49.346748      0.172363
    1332.4001     52.524712      0.173740
    1332.5001     56.203156      0.170673
    1332.6001     59.672539      0.163362
    1332.7001     62.142365      0.153966
    1332.8001     63.122490      0.145069
    1332.9001     62.710739      0.138170
    1333.0001     61.364586      0.133591
    1333.1001     59.570335      0.130879
    1333.2001     57.788094      0.129532
    1333.3001     56.382622      0.129205
    1333.4001     55.397072      0.130149
    1333.5001     54.732803      0.132995
    1333.6001     54.393631      0.137116
    1333.7001     54.492889      0.141206
    1333.8001     55.016006      0.144821
    1333.9001     55.845734      0.147017
    1334.0001     56.947159      0.146552
    1334.1001     58.149612      0.145017
    1334.2001     59.204002      0.144144
    1334.3001     60.064880      0.143851
    1334.4001     60.906944      0.146434
    1334.5001     61.944008      0.154210
    1334.6001     63.037796      0.163454
    1334.7001     63.907249      0.168565
    1334.8001     64.177017      0.166205
    1334.9001     63.304497      0.157940
    1335.0001     61.217766      0.149022
    1335.1001     58.647552      0.145284
    1335.2001     56.863754      0.147965
    1335.3001     56.609566      0.152883
    1335.4001     57.551064      0.152846
    1335.5001     59.185165      0.146902
    1335.6001     60.617035      0.136488
    1335.7001     60.773705      0.125787
    1335.8001     59.750092      0.118331
    1335.9001     58.161186      0.114695
    1336.0001     56.626869      0.112275
    1336.1001     55.429893      0.110716
    1336.2001     54.688538      0.110415
    1336.3001     54.107674      0.110431
    1336.4001     53.241623      0.110589
    1336.5001     52.069092      0.110606
    1336.6001     51.446823      0.109278
    1336.7001     51.286827      0.107121
    1336.8001     51.045670      0.104483
    1336.9001     51.183487      0.100666
    1337.0001     51.573219      0.096524
    1337.1001     51.793343      0.094509
    1337.2001     52.535957      0.095551
    1337.3001     54.185570      0.098298
    1337.4001     56.276703      0.100479
    1337.5001     58.339867      0.104709
    1337.6001     60.037300      0.109648
    1337.7001     61.553078      0.112745
    1337.8001     62.505554      0.121432
    1337.9001     62.961296      0.134164
    1338.0001     63.739616      0.146040
    1338.1001     64.595810      0.160094
    1338.2001     65.423035      0.171953
    1338.3001     66.386932      0.174144
    1338.4001     67.018570      0.172888
    1338.5001     67.030548      0.168290
    1338.6001     66.641876      0.156906
    1338.7001     65.740067      0.142820
    1338.8001     64.334198      0.128523
    1338.9001     62.615219      0.116681
    1339.0001     60.615891      0.112620
    1339.1001     58.430351      0.121160
    1339.2001     56.703033      0.142180
    1339.3001     56.253227      0.167798
    1339.4001     57.196236      0.189028
    1339.5001     58.900719      0.198213
    1339.6001     60.753838      0.194810
    1339.7001     62.139786      0.185268
    1339.8001     62.574860      0.178530
    1339.9001     62.501282      0.177834
    1340.0001     62.570526      0.181576
    1340.1001     62.882599      0.184986
    1340.2001     63.349655      0.182792
    1340.3001     63.664658      0.173303
    1340.4001     63.424644      0.159193
    1340.5001     62.701904      0.143141
    1340.6001     61.708313      0.127861
    1340.7001     60.328491      0.115949
    1340.8001     58.608414      0.109059
    1340.9001     56.836319      0.107075
    1341.0001     55.279800      0.108599
    1341.1001     54.278786      0.111642
    1341.2001     54.024155      0.114894
    1341.3001     54.345154      0.118427
    1341.4001     54.941803      0.122738
    1341.5001     55.701584      0.128402
    1341.6001     56.700249      0.135754
    1341.7001     57.950424      0.144243
    1341.8001     59.345421      0.152189
    1341.9001     60.720901      0.157200
    1342.0001     61.828720      0.157092
    1342.1001     62.341682      0.150709
    1342.2001     62.009460      0.139239
    1342.3001     60.822975      0.126424
    1342.4001     59.009834      0.116148
    1342.5001     57.012329      0.110293
    1342.6001     55.404396      0.108699
    1342.7001     54.664543      0.110597
    1342.8001     54.881203      0.115733
    1342.9001     55.785583      0.124644
    1343.0001     57.006638      0.137226
    1343.1001     58.288498      0.151805
    1343.2001     59.536690      0.165113
    1343.3001     60.701874      0.172318
    1343.4001     61.680962      0.169724
    1343.5001     62.212097      0.159331
    1343.6001     62.034927      0.147867
    1343.7001     61.143761      0.141210
    1343.8001     59.893745      0.142648
    1343.9001     58.761475      0.152592
    1344.0001     58.132965      0.167524
