~Version ---------------------------------------------------
VERS.     2.0 : CWLS log ASCII Standard -VERSION 2.0
WRAP.      NO : ONE LINE PER DEPTH STEP
~Well ------------------------------------------------------
STRT.M                       1890.7 : First Index Value
STOP.M                    1974.8001 : Last Index Value
STEP.M          0.09999999999990905 : Frame Spacing
NULL.                       -999.25 : Absent Value
WELL.                        GRW-01 : Well Name
FLD .     LEEUWARDEN 101 ROTLIEGEND : Field Name
CNTY.                               : County
STAT.                               : State
CTRY.                               : Country
LOC .                               : Location
API .                               : API Number
DATE.                               : Date
COMP.                           PET : Company Name
SRVC.                               : Service Company
~Curves ----------------------------------------------------
DEPT.M         : 
GR  .GAPI      : 
DT  .US/F      : 
RHOB.G/C3      : 
DRHO.G/C3      : 
NPHI.V/V       : 
~Params ----------------------------------------------------
TDD .M            1980.0 : Total Depth (Driller)
UBID.               1348 : Unique Borehole Id
PDAT.     Mean Sea Level : Permanent Datum
EPD .M               0.0 : Elevation of Permanent Datum (PDAT) above Mean Sea Level
LMF .                    : Logging Measured From (Name of Logging Elevation Reference)
APD .M               5.0 : Elevation of Depth Reference (LMF) Above Permanent Datum
~Other -----------------------------------------------------
~ASCII -----------------------------------------------------
# ...
     1938.7     16.069       50.1     2.8379  -0.093971   0.008096
     1938.8     15.605      50.14     2.8363  -0.092891   0.008113
     1938.9     15.487     50.258     2.8386  -0.091736   0.008235
       1939     15.462     50.102      2.843  -0.090288   0.008713
     1939.1      15.54     50.143     2.8493  -0.087737   0.008691
     1939.2     15.284     50.307     2.8514   -0.08539     0.0087
     1939.3      14.75     50.301     2.8504   -0.08477   0.008701
     1939.4     13.931       50.3      2.847  -0.090833   0.008742
     1939.5      13.02       50.3     2.8421  -0.097996   0.009312
     1939.6      11.64       50.3     2.8375   -0.10492   0.011283
     1939.7     11.639     50.299     2.8324    -0.1102    0.00963
     1939.8     11.903     50.271      2.827   -0.11507   0.008681
     1939.9     13.235      50.17     2.8208   -0.11945   0.008437
       1940     13.963     50.445     2.8145   -0.12095   0.007518
     1940.1     14.689     50.348     2.8077   -0.12098   0.007753
     1940.2     14.995     50.265     2.8037   -0.12094   0.008682
     1940.3     14.939       50.1     2.8035   -0.12064    0.00872
     1940.4      14.65       50.1     2.8034    -0.1199   0.008687
     1940.5     14.659     50.098     2.8027   -0.11905   0.008705
     1940.6     14.722     50.089     2.8001   -0.11772   0.008699
     1940.7     15.091     50.126     2.7972   -0.11598     0.0087
     1940.8     15.306     50.293     2.7977   -0.11415     0.0087
     1940.9     15.684     50.308     2.8036   -0.11095   0.008712
       1941     16.265     50.385     2.8147   -0.10299   0.008973
     1941.1      17.02     50.497     2.8267  -0.095151   0.009877
     1941.2     18.879       50.5     2.8342  -0.089029     0.0099
     1941.3     20.516     50.617     2.8337  -0.089568     0.0099
     1941.4     22.019     51.056     2.8285  -0.091861     0.0099
     1941.5      22.95     51.093     2.8224  -0.092962   0.009885
     1941.6     23.001     51.101     2.8252  -0.089108   0.009581
     1941.7     22.227      51.11     2.8358  -0.081392   0.008764
     1941.8     21.151     50.986     2.8588  -0.073311     0.0087
     1941.9     20.163     50.619     2.8839  -0.064918     0.0087
       1942     19.164     50.635     2.8997  -0.057206     0.0087
     1942.1     18.273     50.519     2.9027   -0.05473     0.0087
     1942.2     17.396     50.501     2.8945  -0.059881     0.0087
     1942.3     16.103       50.5     2.8823  -0.064694     0.0087
     1942.4     15.004       50.5     2.8727  -0.069442     0.0087
     1942.5     14.078       50.5     2.8665  -0.073753   0.008713
     1942.6     13.791     50.667     2.8596  -0.076876   0.008996
     1942.7     13.758     51.088     2.8448  -0.082659   0.009983
     1942.8     13.932     51.335     2.8226  -0.093746   0.011095
     1942.9     14.619     51.377     2.8057    -0.1026   0.011561
       1943      15.53     51.363     2.8039   -0.10433   0.011861
     1943.1     16.263     51.693     2.8115   -0.10163   0.012112
     1943.2     16.912      51.81     2.8196  -0.095448   0.012525
     1943.3     17.304     51.717     2.8224  -0.089686   0.013108
     1943.4     17.059     51.691     2.8184  -0.089937   0.012951
     1943.5     16.385     51.626     2.8095  -0.096312    0.01175
     1943.6     16.027     51.521     2.7986   -0.10501    0.01072
     1943.7      16.02     51.498     2.7889   -0.11236   0.010433
     1943.8     16.525     51.435     2.7857   -0.11758   0.010007
     1943.9     17.457     51.199     2.7932   -0.12033   0.009453
       1944     18.475     51.093     2.8105    -0.1171     0.0093
     1944.1     19.275     51.171     2.8338   -0.10786   0.009312
     1944.2     19.396     51.199     2.8577  -0.095891   0.009572
     1944.3     18.953     51.202     2.8784   -0.08262   0.010386
     1944.4     18.162      51.13     2.8941   -0.06897   0.011638
     1944.5      17.14     51.031     2.9026  -0.057242   0.012901
     1944.6     16.345         51     2.9031  -0.051384   0.014014
     1944.7     16.383     51.066      2.895  -0.051936   0.015111
     1944.8     17.077     51.177     2.8771  -0.055292   0.016646
     1944.9     17.899     51.209     2.8537  -0.058927   0.018413
       1945     19.295     51.375     2.8312  -0.064045   0.020281
     1945.1     21.471     51.914      2.813  -0.071204   0.022951
     1945.2     24.318     52.579     2.8016  -0.078028   0.026685
     1945.3     27.678     53.201     2.7969  -0.083603    0.03264
     1945.4     31.281     53.871     2.7949  -0.089168   0.038902
     1945.5     35.892     54.503     2.7914  -0.093319    0.04227
     1945.6     40.267     55.039      2.785  -0.094416    0.04329
     1945.7     42.914       55.4     2.7772  -0.093156   0.043023
     1945.8     44.701       55.5     2.7693  -0.091523   0.041789
     1945.9     45.188       55.5     2.7614   -0.09103   0.040335
       1946     44.272       55.5     2.7538  -0.093119    0.03946
     1946.1     43.078       55.5     2.7466  -0.098393   0.038804
     1946.2     41.952       55.5     2.7399   -0.10539   0.037361
     1946.3      41.35       55.5     2.7343   -0.11193   0.035159
     1946.4     41.078     55.434     2.7308   -0.11625   0.032881
     1946.5     40.487     55.265     2.7301   -0.11866    0.03087
     1946.6     39.481     54.932     2.7318   -0.11982   0.028866
     1946.7     38.215     54.392     2.7356   -0.11909   0.026589
     1946.8     36.954     53.795     2.7422   -0.11539    0.02414
     1946.9     35.923     53.191     2.7519   -0.10974   0.021477
       1947     34.909       52.6     2.7643   -0.10395   0.019123
     1947.1      33.83     52.073     2.7782   -0.09887   0.017788
     1947.2     33.621     51.696     2.7923  -0.094741   0.016754
     1947.3      34.01     51.466     2.8075  -0.091008   0.015541
     1947.4     34.146     51.081     2.8239  -0.087767   0.014889
     1947.5     33.359     50.537      2.838  -0.085852   0.014236
     1947.6     31.725     50.324     2.8467  -0.084574   0.014051
     1947.7     29.522     50.241     2.8484  -0.083747   0.013147
     1947.8     26.373      50.18     2.8447  -0.083998   0.012041
     1947.9     22.895     50.335     2.8359  -0.085031   0.013496
       1948     20.216      50.48     2.8272  -0.085255   0.015113
     1948.1     18.288     50.659     2.8227  -0.081218   0.016039
     1948.2     17.707     51.099     2.8263  -0.070909   0.017913
     1948.3      18.85      51.39     2.8374  -0.059883    0.01993
     1948.4     21.223     51.722     2.8496  -0.051055   0.023001
     1948.5     24.703     51.882      2.859  -0.047849   0.025958
     1948.6     28.268     51.891     2.8639  -0.048185   0.028792
     1948.7     31.338     51.845     2.8621  -0.052159   0.028221
     1948.8     33.212     51.626     2.8575  -0.059426   0.025096
     1948.9     33.778     51.188     2.8544  -0.066297   0.021371
       1949     33.153     50.601     2.8573   -0.06984   0.018707
     1949.1     31.946     50.342     2.8666  -0.067624    0.01743
     1949.2     29.779     50.262     2.8785  -0.066597   0.016203
     1949.3     26.987     50.104     2.8902  -0.064658   0.015061
     1949.4     24.357     50.102     2.8993  -0.062812   0.014078
     1949.5     22.414     50.112     2.9032  -0.060983   0.013816
     1949.6     21.334     50.119     2.9023  -0.060136   0.012482
     1949.7     20.756     50.113     2.8962  -0.063512   0.010824
     1949.8     19.833     50.103     2.8858  -0.068299     0.0099
     1949.9     19.326     50.113     2.8716  -0.072776     0.0099
       1950     18.998     50.183      2.858   -0.07508     0.0099
     1950.1     18.022      50.26     2.8507  -0.075009     0.0099
     1950.2     17.126     50.336      2.851   -0.07481     0.0099
     1950.3     16.171     50.506     2.8569  -0.073559     0.0099
     1950.4     15.456     50.501     2.8649  -0.070037   0.009921
     1950.5      14.66     50.501      2.867   -0.06955    0.01018
     1950.6     14.712     50.512     2.8615  -0.076025   0.011228
