# LAS format data
~Version Information
VERS.     2.00: CWLS LOG ASCII STANDARD - VERSION 2.0
WRAP.       NO: ONE LINE PER DEPTH STEP
~Well Information
#MNEM   .UNITS    DATA                           DESCRIPTION
#----   ------    ----                           -----------
STRT    .M        1305.9001                     :First Index Value
STOP    .M        1367.8002                     :Last Index Value
STEP    .M        0.1000                        :Frame Spacing
NULL    .         -999.2500                     :Absent Value
WELL    .         MED-01                   :Well Name   
FLD     .         WASSENAAR                     :Field Name  
CNTY    .                                       :County
STAT    .                                       :State
CTRY    .                                       :Country
LOC     .                                       :Location
API     .                                       :API Number
DATE    .                                       :Date
COMP    .         NAM                           :Company Name
SRVC    .                                       :Service Company
~Parameter Information
#MNEM   .UNITS    VALUE                          DESCRIPTION
#----   ------    -----                          -----------
TDL     .M        1726.00000                    :Total Depth (Logger)
TDD     .M        1726.00000                    :Total Depth (Driller)   
UBID    .         1601                          :Unique Borehole Id  
PDAT    .         Mean Sea Level                :Permanent Datum 
EPD     .M           0.00000                    :Elevation of Permanent Datum (PDAT) above Mean Sea Level
LMF     .         Rotary Table                  :Logging Measured From (Name of Logging Elevation Reference) 
APD     .M           8.68000                    :Elevation of Depth Reference (LMF) Above Permanent Datum
~Curve Information
#MNEM   .UNITS    API CODE                       CURVE DESCRIPTION
#----   ------    --------                       -----------------
DEPT    .M                                      :1     Index curve
GR      .GAPI                                   :2     SNAM  
NPHI    .V/V                                    :3     SNAM  
~Ascii Log Data
# ...
    1344.1001     58.144363      0.180351
    1344.2001     58.563210      0.184892
    1344.3001     58.973129      0.178804
    1344.4001     59.039253      0.165788
    1344.5001     58.704750      0.153622
    1344.6001     58.221718      0.148663
    1344.7001     57.877289      0.151891
    1344.8001     57.794884      0.159940
    1344.9001     58.148422      0.166816
    1345.0001     58.961327      0.168563
    1345.1001     59.817032      0.167151
    1345.2001     60.429718      0.167568
    1345.3002     60.985085      0.172176
    1345.4002     61.356316      0.177546
    1345.5002     61.434158      0.180273
    1345.6002     61.452126      0.179301
    1345.7002     61.409698      0.173020
    1345.8002     61.046623      0.163220
    1345.9002     60.150826      0.155808
    1346.0002     59.044296      0.151947
    1346.1002     58.219635      0.151210
    1346.2002     57.742256      0.154608
    1346.3002     57.511711      0.160508
    1346.4002     57.194992      0.166721
    1346.5002     56.456207      0.171708
    1346.6002     55.379120      0.176360
    1346.7002     54.506523      0.183140
    1346.8002     54.529091      0.192205
    1346.9002     55.553520      0.198244
    1347.0002     57.028381      0.191586
    1347.1002     58.532967      0.180214
    1347.2002     59.490005      0.164830
    1347.3002     59.335831      0.145672
    1347.4002     58.604843      0.131579
    1347.5002     57.077599      0.121686
    1347.6002     54.289307      0.109427
    1347.7002     51.350441      0.099789
    1347.8002     48.511215      0.093218
    1347.9002     45.417503      0.089400
    1348.0002     43.350235      0.085469
    1348.1002     43.029045      0.081650
    1348.2002     42.875015      0.081106
    1348.3002     43.385902      0.082441
    1348.4002     44.624023      0.088384
    1348.5002     45.853363      0.104949
    1348.6002     47.943672      0.128307
    1348.7002     51.242073      0.154635
    1348.8002     54.918007      0.178149
    1348.9002     58.468277      0.191243
    1349.0002     61.250854      0.190835
    1349.1002     63.087097      0.188792
    1349.2002     63.916313      0.192877
    1349.3002     64.271149      0.206019
    1349.4002     64.548859      0.222558
    1349.5002     64.574295      0.234883
    1349.6002     64.277740      0.237861
    1349.7002     64.069733      0.235224
    1349.8002     64.052719      0.234103
    1349.9002     64.137207      0.236360
    1350.0002     64.397873      0.236287
    1350.1002     64.682083      0.233763
    1350.2002     64.740799      0.229448
    1350.3002     64.565094      0.220834
    1350.4002     64.228455      0.210254
    1350.5002     63.749054      0.200087
    1350.6002     63.104050      0.188175
    1350.7002     62.261215      0.174418
    1350.8002     61.230988      0.162502
    1350.9002     60.049049      0.155315
    1351.0002     58.814262      0.153837
    1351.1002     57.761017      0.159029
    1351.2002     57.177467      0.171371
    1351.3002     57.406868      0.189472
    1351.4002     58.801437      0.211111
    1351.5002     61.479851      0.234437
    1351.6002     65.070694      0.255550
    1351.7002     68.863586      0.269333
    1351.8002     72.123917      0.272834
    1351.9002     74.182968      0.266321
    1352.0002     74.796829      0.252448
    1352.1002     74.192978      0.233961
    1352.2002     72.707657      0.213423
    1352.3002     70.628662      0.193575
    1352.4002     68.239441      0.177369
    1352.5002     65.776688      0.167729
    1352.6002     63.442932      0.166031
    1352.7002     61.589996      0.170584
    1352.8002     60.373039      0.175694
    1352.9002     59.539810      0.174115
    1353.0002     58.773796      0.162526
    1353.1002     57.778366      0.144821
    1353.2002     56.416786      0.129591
    1353.3002     55.037544      0.124889
    1353.4002     54.311127      0.134789
    1353.5002     54.761398      0.158241
    1353.6002     56.498337      0.189713
    1353.7002     59.253944      0.221054
    1353.8002     62.441452      0.243092
    1353.9002     65.496445      0.250316
    1354.0002     67.909576      0.242622
    1354.1002     69.116837      0.224713
    1354.2002     68.717667      0.204069
    1354.3002     66.763351      0.189495
    1354.4002     63.732445      0.187502
    1354.5002     60.372169      0.199563
    1354.6002     57.749931      0.220048
    1354.7002     56.733505      0.239632
    1354.8002     57.487595      0.251364
    1354.9002     59.509224      0.253601
    1355.0002     62.333702      0.250297
    1355.1002     65.594559      0.248732
    1355.2002     68.726776      0.252578
    1355.3002     71.298462      0.257077
    1355.4002     73.012711      0.256890
    1355.5002     73.775421      0.252108
    1355.6002     73.625839      0.243993
    1355.7002     72.895554      0.236854
    1355.8002     72.087128      0.236521
    1355.9002     71.593994      0.242274
    1356.0002     71.731323      0.250030
    1356.1002     72.636978      0.258779
    1356.2002     73.988068      0.267846
    1356.3002     75.191116      0.276037
    1356.4002     76.042511      0.282649
    1356.5002     76.174698      0.286768
    1356.6002     75.729401      0.288987
    1356.7002     75.883438      0.292599
    1356.8002     77.174347      0.296992
    1356.9002     78.827393      0.300082
    1357.0002     80.529083      0.303681
    1357.1002     81.510941      0.300754
    1357.2002     80.955429      0.279279
    1357.3002     78.743607      0.261798
    1357.4002     75.545853      0.252810
    1357.5002     72.378448      0.241534
    1357.6002     70.198212      0.245983
    1357.7002     69.661102      0.268354
    1357.8002     70.498764      0.277979
    1357.9002     72.340408      0.282443
    1358.0002     74.113281      0.281528
    1358.1002     74.927460      0.265228
    1358.2002     74.518951      0.242313
    1358.3002     72.877899      0.215120
    1358.4002     70.304123      0.195264
    1358.5002     67.236465      0.173712
    1358.6002     64.155090      0.144313
    1358.7002     61.482941      0.129605
    1358.8002     59.380211      0.121647
    1358.9002     57.795120      0.116726
    1359.0002     56.520424      0.118428
    1359.1002     55.351982      0.121699
    1359.2002     54.319901      0.122407
    1359.3002     53.569366      0.126417
    1359.4002     53.202423      0.137099
    1359.5002     53.188286      0.157328
    1359.6002     53.307739      0.182329
    1359.7002     53.751091      0.206372
    1359.8002     54.777557      0.219773
    1359.9002     56.193520      0.221063
    1360.0002     57.617874      0.210678
    1360.1002     58.678741      0.192799
    1360.2002     59.147751      0.173260
    1360.3002     58.952324      0.156829
    1360.4002     58.496620      0.147081
    1360.5002     58.258995      0.145448
    1360.6002     58.405243      0.153154
    1360.7002     59.003822      0.169684
    1360.8002     60.589821      0.192193
    1360.9002     63.160492      0.215779
    1361.0002     66.081818      0.235732
    1361.1002     68.931473      0.249536
    1361.2002     71.331436      0.257457
    1361.3002     72.866821      0.260526
    1361.4002     73.322861      0.257769
    1361.5002     72.908569      0.247412
    1361.6002     71.788681      0.229381
    1361.7002     69.870270      0.206332
    1361.8002     67.230011      0.182761
    1361.9002     64.240814      0.163591
    1362.0002     61.100311      0.151187
    1362.1002     57.861473      0.144394
    1362.2002     54.772354      0.140047
    1362.3002     52.022171      0.134684
    1362.4002     49.732552      0.127246
    1362.5002     48.081581      0.118914
    1362.6002     47.015862      0.110921
    1362.7002     46.294861      0.104131
    1362.8002     45.664703      0.099215
    1362.9002     44.950737      0.096761
    1363.0002     44.205261      0.097994
    1363.1002     43.754738      0.104710
