# LAS format data
~Version Information
VERS.     2.00: CWLS LOG ASCII STANDARD - VERSION 2.0
WRAP.       NO: ONE LINE PER DEPTH STEP
~Well Information
#MNEM   .UNITS    DATA                           DESCRIPTION
#----   ------    ----                           -----------
STRT    .M        1264.8000                     :First Index Value
STOP    .M        1305.4001                     :Last Index Value
STEP    .M        0.1000                        :Frame Spacing
NULL    .         -999.2500                     :Absent Value
WELL    .         WAS-25                  :Well Name   
FLD     .         WASSENAAR                     :Field Name  
CNTY    .                                       :County
STAT    .                                       :State
CTRY    .                                       :Country
LOC     .                                       :Location
API     .                                       :API Number
DATE    .                                       :Date
COMP    .         NAM                           :Company Name
SRVC    .                                       :Service Company
~Parameter Information
#MNEM   .UNITS    VALUE                          DESCRIPTION
#----   ------    -----                          -----------
TDL     .M        1297.00000                    :Total Depth (Logger)
TDD     .M        1297.00000                    :Total Depth (Driller)   
UBID    .         2406                          :Unique Borehole Id  
PDAT    .         Mean Sea Level                :Permanent Datum 
EPD     .M           0.00000                    :Elevation of Permanent Datum (PDAT) above Mean Sea Level
LMF     .         Rotary Table                  :Logging Measured From (Name of Logging Elevation Reference) 
APD     .M           4.62000                    :Elevation of Depth Reference (LMF) Above Permanent Datum
~Curve Information
#MNEM   .UNITS    API CODE                       CURVE DESCRIPTION
#----   ------    --------                       -----------------
DEPT    .M                                      :1     Index curve
GR      .GAPI                                   :2     SNAM  
NPHI    .V/V                                    :3     SNAM  
~Ascii Log Data
    1264.8000     48.500443      0.235142
    1264.9000     47.203575      0.233373
    1265.0000     47.651932      0.223721
    1265.1000     49.095268      0.224803
    1265.2000     50.191055      0.228999
    1265.3000     50.627937      0.236065
    1265.4000     50.630119      0.240784
    1265.5000     50.051468      0.240420
    1265.6000     48.739403      0.232499
    1265.7000     48.966103      0.225604
    1265.8000     49.477310      0.218286
    1265.9000     49.817047      0.210127
    1266.0000     50.181488      0.205427
    1266.1000     50.197006      0.200158
    1266.2000     49.558052      0.192888
    1266.3000     49.859650      0.196404
    1266.4000     50.704102      0.206582
    1266.5000     51.705917      0.220566
    1266.6000     52.722229      0.236630
    1266.7000     53.189026      0.251933
    1266.8000     52.324020      0.262318
    1266.9000     51.782600      0.267171
    1267.0000     51.846268      0.267255
    1267.1000     52.487724      0.262891
    1267.2000     53.123833      0.259625
    1267.3000     53.242767      0.259158
    1267.4000     52.162621      0.262057
    1267.5000     50.933098      0.265400
    1267.6000     50.264809      0.270395
    1267.7000     50.640030      0.281153
    1267.8000     50.835754      0.290629
    1267.9000     50.598740      0.299057
    1268.0000     50.601570      0.313641
    1268.1000     50.876221      0.331197
    1268.2000     52.406700      0.347467
    1268.3000     56.987183      0.355253
    1268.4000     62.281982      0.348373
    1268.5000     66.057449      0.323878
    1268.6000     67.015137      0.287142
    1268.7000     65.440308      0.252456
    1268.8000     62.041916      0.226557
    1268.9000     58.146133      0.208172
    1269.0000     54.913429      0.197957
    1269.1000     52.670746      0.195146
    1269.2000     50.889870      0.193485
    1269.3000     49.109024      0.196548
    1269.4000     47.402336      0.206789
    1269.5000     46.082535      0.214896
    1269.6000     45.410706      0.220545
    1269.7000     46.151489      0.229619
    1269.8000     49.248367      0.242641
    1269.9000     54.826912      0.257820
    1270.0000     62.278946      0.269291
    1270.1000     70.278854      0.268345
    1270.2000     76.774338      0.254867
    1270.3000     79.495163      0.236372
    1270.4000     77.665024      0.220214
    1270.5000     72.660873      0.213447
    1270.6000     66.825150      0.218943
    1270.7000     62.168839      0.228669
    1270.8000     59.985168      0.234540
    1270.9000     60.171745      0.234468
    1271.0000     59.985207      0.230212
    1271.1000     57.690613      0.225384
    1271.2000     53.975471      0.222733
    1271.3000     50.583794      0.221419
    1271.4000     48.940407      0.222676
    1271.5000     49.692047      0.229237
    1271.6000     52.019867      0.234735
    1271.7000     54.685722      0.239406
    1271.8000     56.393600      0.250349
    1271.9000     57.758339      0.252760
    1272.0000     59.539101      0.241272
    1272.1000     61.494316      0.236921
    1272.2000     63.670258      0.233734
    1272.3000     65.835098      0.225595
    1272.4000     66.777634      0.227927
    1272.5000     67.038727      0.227959
    1272.6000     67.447937      0.210139
    1272.7000     68.174927      0.188047
    1272.8000     69.299423      0.166403
    1272.9000     70.749573      0.146800
    1273.0000     71.516754      0.138385
    1273.1000     71.469467      0.138596
    1273.2000     70.600220      0.142944
    1273.3000     69.414032      0.147483
    1273.4000     67.833847      0.152713
    1273.5000     65.344101      0.160822
    1273.6000     62.327126      0.168191
    1273.7000     59.188911      0.174092
    1273.8000     56.739403      0.177367
    1273.9000     56.079697      0.169062
    1274.0000     56.956223      0.149997
    1274.1000     58.043205      0.126167
    1274.2000     59.083000      0.103423
    1274.3000     59.758377      0.084157
    1274.4000     56.935295      0.078616
    1274.5000     53.628197      0.079725
    1274.6000     50.337982      0.086391
    1274.7000     45.696426      0.095272
    1274.8000     41.555824      0.102343
    1274.9000     38.475456      0.106215
    1275.0000     35.831703      0.101265
    1275.1000     33.916634      0.094856
    1275.2000     33.085648      0.088244
    1275.3000     31.868393      0.083782
    1275.4000     30.898987      0.081706
    1275.5000     30.581841      0.083548
    1275.6000     30.819118      0.087550
    1275.7000     31.142471      0.096898
    1275.8000     31.314777      0.118880
    1275.9000     30.992645      0.147702
    1276.0000     30.256874      0.181638
    1276.1000     28.841064      0.226541
    1276.2000     28.782333      0.261537
    1276.3000     29.266407      0.283954
    1276.4000     29.293453      0.274786
    1276.5000     29.268654      0.255022
    1276.6000     29.125278      0.229462
    1276.7000     28.509785      0.201740
    1276.8000     28.081856      0.193493
    1276.9000     27.905712      0.199410
    1277.0000     28.072681      0.207124
    1277.1000     27.982391      0.214243
    1277.2000     27.612968      0.216844
    1277.3000     27.236546      0.199944
    1277.4000     26.895687      0.177854
    1277.5000     26.637600      0.156292
    1277.6000     26.603485      0.143112
    1277.7000     26.544708      0.140501
    1277.8000     26.361053      0.146042
    1277.9000     25.984585      0.146275
    1278.0001     25.370522      0.145691
    1278.1001     24.679806      0.147007
    1278.2001     24.486843      0.147298
    1278.3001     24.514183      0.149257
    1278.4001     24.553402      0.154120
    1278.5001     24.650497      0.157429
    1278.6001     24.557823      0.156705
    1278.7001     24.218250      0.152175
    1278.8001     24.216618      0.148016
    1278.9001     25.012043      0.144048
    1279.0001     26.640926      0.138184
    1279.1001     28.259930      0.130763
    1279.2001     29.663689      0.125751
    1279.3001     30.803482      0.126524
    1279.4001     31.102863      0.130544
    1279.5001     30.742352      0.134143
    1279.6001     30.431820      0.136782
    1279.7001     30.664837      0.141529
    1279.8001     31.188522      0.149339
    1279.9001     31.648922      0.161016
    1280.0001     32.345146      0.179014
    1280.1001     33.103722      0.194371
    1280.2001     33.371117      0.194824
    1280.3001     33.359589      0.187312
    1280.4001     33.287552      0.179870
    1280.5001     32.913284      0.173248
    1280.6001     32.009583      0.169833
    1280.7001     30.933788      0.170382
    1280.8001     30.263870      0.172084
    1280.9001     29.717140      0.170790
    1281.0001     29.155190      0.166336
    1281.1001     28.953835      0.161548
    1281.2001     28.965546      0.155597
    1281.3001     29.105213      0.149180
    1281.4001     29.606987      0.146436
    1281.5001     30.354744      0.146972
    1281.6001     31.126568      0.149214
    1281.7001     31.900681      0.152990
    1281.8001     32.862343      0.156095
    1281.9001     34.107269      0.158343
    1282.0001     35.351265      0.163927
    1282.1001     36.162201      0.174713
    1282.2001     36.011398      0.189743
    1282.3001     34.693352      0.205169
    1282.4001     33.181007      0.217603
    1282.5001     32.410172      0.224015
    1282.6001     31.887466      0.223422
    1282.7001     31.396988      0.220316
    1282.8001     30.701069      0.218846
    1282.9001     28.658993      0.215579
    1283.0001     25.860470      0.211768
    1283.1001     23.902866      0.211162
    1283.2001     23.041256      0.208150
    1283.3001     22.997673      0.200546
    1283.4001     23.602680      0.188809
    1283.5001     24.708534      0.175463
    1283.6001     26.062004      0.162600
    1283.7001     27.059269      0.155411
    1283.8001     28.430519      0.151425
