~Version ---------------------------------------------------
VERS.     2.0 : CWLS log ASCII Standard -VERSION 2.0
WRAP.      NO : ONE LINE PER DEPTH STEP
~Well ------------------------------------------------------
STRT.M                1195.8001 : First Index Value
STOP.M                   1150.3 : Last Index Value
STEP.M     -0.09999999999990905 : Frame Spacing
NULL.                   -999.25 : Absent Value
WELL.                    D15-01 : Well Name
FLD .                   UNKNOWN : Field Name
CNTY.                           : County
STAT.                           : State
CTRY.                           : Country
LOC .                           : Location
API .                           : API Number
DATE.                           : Date
COMP.                       PHL : Company Name
SRVC.                           : Service Company
~Curves ----------------------------------------------------
DEPT.M         : 
GR  .GAPI      : 
DT  .US/F      : 
RHOB.G/C3      : 
DRHO.G/C3      : 
NPHI.V/V       : 
~Params ----------------------------------------------------
TDL .M            1451.0 : Total Depth (Logger)
TDD .M            1451.0 : Total Depth (Driller)
UBID.               7019 : Unique Borehole Id
PDAT.     Mean Sea Level : Permanent Datum
EPD .M               0.0 : Elevation of Permanent Datum (PDAT) above Mean Sea Level
LMF .       Rotary Table : Logging Measured From (Name of Logging Elevation Reference)
APD .M              27.4 : Elevation of Depth Reference (LMF) Above Permanent Datum
~Other -----------------------------------------------------
~ASCII -----------------------------------------------------
# ...
     1171.8     23.378     111.24     2.3313   0.016302    0.28948
     1171.7     23.399     111.54     2.3281   0.012892     0.2851
     1171.6     23.246     111.73     2.3282    0.00962     0.2815
     1171.5     23.101     111.89     2.3289   0.007636    0.28315
     1171.4      23.15     112.25     2.3339    0.00703    0.28533
     1171.3      23.98     112.63     2.3378   0.007442    0.28444
     1171.2     25.676     112.79     2.3355   0.008291    0.28117
     1171.1     27.308     112.71     2.3319   0.008837     0.2804
       1171     28.372     112.52     2.3324    0.00874    0.28263
     1170.9     28.878     112.33     2.3376   0.008347    0.28569
     1170.8     28.895     112.15     2.3431   0.007933    0.28633
     1170.7     28.536     111.98     2.3449   0.007566    0.28629
     1170.6     27.894     111.82     2.3422   0.007164    0.28694
     1170.5     27.079     111.77     2.3423   0.006642    0.27838
     1170.4     26.327     111.95     2.3468   0.005966      0.265
     1170.3     25.773     112.44     2.3536   0.005034    0.25737
     1170.2     25.394     112.84     2.3588   0.004097    0.25928
     1170.1     25.131     113.14     2.3578   0.003539    0.26623
       1170      24.98     113.63     2.3477   0.003567    0.27326
     1169.9     25.182     114.16     2.3408   0.004067    0.27525
     1169.8     25.649     114.76     2.3422   0.004837     0.2754
     1169.7     26.074     115.95     2.3465   0.005023    0.28304
     1169.6     25.951     117.12     2.3446   0.004135    0.29074
     1169.5     25.289     117.95     2.3355   0.001829    0.29274
     1169.4     24.514     118.96     2.3252   -0.00093    0.29257
     1169.3     23.878        120     2.3203  -0.003012    0.29442
     1169.2     23.565     120.83     2.3154  -0.004017    0.29789
     1169.1     23.956     121.62     2.2909  -0.003661    0.29729
       1169     24.301     122.37       2.23   -0.00197    0.29658
     1168.9     23.991     123.05     2.1466   0.001844    0.30212
     1168.8     23.536     123.56      2.087   0.009027    0.31602
     1168.7      23.23     123.83     2.0661    0.01985    0.33964
     1168.6     23.023     123.69     2.0595   0.034001    0.36855
     1168.5     22.891     122.66     2.0381   0.049034    0.38873
     1168.4      22.82     120.85     1.9994   0.058893    0.39235
     1168.3     22.836     118.86     1.9593   0.051951    0.38524
     1168.2     22.963     116.85     1.9177   0.034071    0.38236
     1168.1     22.774     114.75     1.8777   0.022475    0.39241
       1168     21.956     112.52     1.8593   0.017895    0.40954
     1167.9      21.21     110.31     1.8945   0.016351    0.42288
     1167.8     20.983      108.4     1.9796     0.0135    0.42224
     1167.7      20.89     107.04     2.0689   0.009233    0.40642
     1167.6     20.683     106.07     2.1483    0.00506    0.38078
     1167.5     20.223     105.22     2.2116   0.002446    0.35425
     1167.4     19.509     104.56     2.2507   0.001508    0.33382
     1167.3     18.595     104.21     2.2723   0.001396    0.32084
     1167.2     17.672     104.16     2.2862   0.001227    0.31366
     1167.1     17.084     104.31      2.295   0.000534    0.31063
       1167     17.087     104.65      2.301  -0.000321    0.31109
     1166.9     17.594     105.25     2.3065  -0.000264    0.31322
     1166.8     18.161     106.18     2.3117   0.001206     0.3131
     1166.7     18.552     107.67     2.3166   0.003905    0.30738
     1166.6     18.879     109.76     2.3205   0.007182    0.29837
     1166.5     19.475     112.23     2.3226   0.010198    0.29282
     1166.4     20.379     114.63     2.3254   0.012063    0.29193
     1166.3     21.212     116.75     2.3312   0.012403    0.29305
     1166.2     21.561     118.89     2.3378   0.011714    0.29476
     1166.1     21.366     120.56     2.3422   0.010926    0.29398
       1166     21.028     120.86     2.3413    0.01057    0.29008
     1165.9     21.005     119.82     2.3352   0.010945    0.28881
     1165.8      21.31     118.15     2.3317   0.012514    0.29476
     1165.7     21.569     116.33     2.3389   0.016451    0.31247
     1165.6       21.6     114.28     2.3542   0.024065    0.34503
     1165.5     21.531     112.24     2.3686   0.034714    0.37691
     1165.4     21.389     110.69     2.3743   0.045086    0.38914
     1165.3     20.867     109.61     2.3695   0.050407    0.38433
     1165.2     19.979     108.77     2.3603   0.047056    0.37095
     1165.1     19.185     108.12     2.3554   0.035839    0.35205
       1165     18.771      107.7     2.3569   0.022412    0.33081
     1164.9     18.549     107.37      2.359   0.012383    0.31322
     1164.8     18.274     106.86     2.3553   0.006821    0.30382
     1164.7     18.041     106.14     2.3449   0.003832    0.29998
     1164.6     17.955     105.18     2.3334   0.001151    0.29305
     1164.5     17.677     103.85     2.3272  -0.002041    0.28044
     1164.4     16.737     102.12     2.3286  -0.005378    0.26987
     1164.3     15.333     100.17     2.3328  -0.008259    0.26517
     1164.2     14.101     98.259     2.3353  -0.010119    0.26209
     1164.1     13.163     96.603     2.3376  -0.010626    0.25804
       1164     12.249     95.339     2.3392   -0.00963    0.25555
     1163.9     11.406     94.597     2.3381  -0.007188    0.25737
     1163.8     10.988     94.334     2.3377  -0.003734      0.262
     1163.7     11.073      94.49     2.3395   0.000182    0.26523
     1163.6     11.418     95.036     2.3408   0.004271    0.26545
     1163.5     11.957     95.891     2.3423   0.008645    0.26506
     1163.4     12.749     97.075      2.344   0.013202    0.26465
     1163.3     13.813      98.67     2.3447   0.017781    0.26216
     1163.2     15.038     100.41     2.3447   0.022114    0.25786
     1163.1     16.229     102.09     2.3434   0.025516    0.25384
       1163      17.31      103.8     2.3385   0.027296    0.25156
     1162.9     18.246     105.21     2.3321   0.026954    0.25214
     1162.8     18.995     105.99     2.3283   0.024293    0.25379
     1162.7     19.549     106.23     2.3299   0.019585    0.25397
     1162.6      19.87     106.11     2.3369   0.014026    0.25496
     1162.5     19.764     105.68     2.3471   0.008791    0.25994
     1162.4     18.952      104.9     2.3572   0.004314     0.2681
     1162.3     17.699     103.84      2.366   0.000787    0.27436
     1162.2     16.406     102.71     2.3738   -0.00138    0.27703
     1162.1      15.41     101.83     2.3799  -0.001639    0.27728
       1162     15.022     101.35     2.3828   0.000148    0.27102
     1161.9     15.375     101.26     2.3812   0.003669      0.259
     1161.8     16.367     101.65     2.3749   0.007208    0.25276
     1161.7     17.466     102.44     2.3692   0.009353    0.25176
     1161.6     18.326     103.54      2.367   0.009933    0.25141
     1161.5     18.976     104.84     2.3659   0.009722    0.25383
     1161.4     19.635     106.27     2.3652   0.010145    0.25496
     1161.3     20.349     107.64     2.3623   0.013689    0.25236
     1161.2     20.882     108.56     2.3471   0.019409    0.25628
     1161.1     21.227      109.2      2.325   0.026167    0.26942
       1161     21.589      109.8     2.3048   0.034603     0.2866
     1160.9     22.334     110.21     2.2807   0.044807    0.29901
     1160.8     23.344     110.38     2.2423   0.056315    0.31095
     1160.7     24.185     110.28     2.1893   0.064798    0.32948
     1160.6     24.393     109.72     2.1416   0.068567    0.35065
     1160.5     23.873     108.62     2.1058   0.067192       0.37
     1160.4     22.767     106.97     2.0763   0.062335    0.38682
     1160.3     21.447      104.6     2.0481   0.056041     0.4052
     1160.2     20.072     101.88     2.0202   0.049977    0.42428
     1160.1     18.649     99.512     1.9972   0.046617    0.43931
       1160     17.568     97.419     1.9991   0.046428    0.45474
     1159.9     17.131     95.707     2.0239   0.049416    0.46529
