# LAS format data
~Version Information
VERS.     2.00: CWLS LOG ASCII STANDARD - VERSION 2.0
WRAP.       NO: ONE LINE PER DEPTH STEP
~Well Information
#MNEM   .UNITS    DATA                           DESCRIPTION
#----   ------    ----                           -----------
STRT    .M        1397.9001                     :First Index Value
STOP    .M        1453.6002                     :Last Index Value
STEP    .M        0.1000                        :Frame Spacing
NULL    .         -999.2500                     :Absent Value
WELL    .         MED-05                   :Well Name   
FLD     .         WASSENAAR                     :Field Name  
CNTY    .                                       :County
STAT    .                                       :State
CTRY    .                                       :Country
LOC     .                                       :Location
API     .                                       :API Number
DATE    .                                       :Date
COMP    .         NAM                           :Company Name
SRVC    .                                       :Service Company
~Parameter Information
#MNEM   .UNITS    VALUE                          DESCRIPTION
#----   ------    -----                          -----------
TDL     .M        1406.00000                    :Total Depth (Logger)
TDD     .M        1406.00000                    :Total Depth (Driller)   
UBID    .         1605                          :Unique Borehole Id  
PDAT    .         Mean Sea Levl                 :Permanent Datum 
EPD     .M           0.00000                    :Elevation of Permanent Datum (PDAT) above Mean Sea Level
LMF     .         Rotary Table                  :Logging Measured From (Name of Logging Elevation Reference) 
APD     .M           8.77000                    :Elevation of Depth Reference (LMF) Above Permanent Datum
~Curve Information
#MNEM   .UNITS    API CODE                       CURVE DESCRIPTION
#----   ------    --------                       -----------------
DEPT    .M                                      :1     Index curve
GR      .GAPI                                   :2     SNAM  
NPHI    .V/V                                    :3     SNAM  
~Ascii Log Data
# ...
    1417.0001     76.416306      0.308642
    1417.1001     72.504761      0.309826
    1417.2001     68.012634      0.315331
    1417.3001     63.572151      0.315451
    1417.4001     59.270836      0.308655
    1417.5001     55.653198      0.301299
    1417.6001     52.794998      0.292028
    1417.7001     51.109856      0.282401
    1417.8001     50.717186      0.277096
    1417.9001     50.926369      0.276820
    1418.0001     51.526184      0.282645
    1418.1001     51.924088      0.292077
    1418.2001     52.187447      0.303544
    1418.3001     52.359528      0.312877
    1418.4001     52.642952      0.315656
    1418.5001     53.110306      0.314130
    1418.6001     53.748344      0.309951
    1418.7001     54.282700      0.306132
    1418.8001     54.438133      0.314019
    1418.9001     53.943321      0.334720
    1419.0001     52.948204      0.346439
    1419.1001     51.550430      0.350420
    1419.2001     49.761475      0.347786
    1419.3001     47.830986      0.337788
    1419.4001     46.033600      0.326682
    1419.5001     44.781387      0.319958
    1419.6001     44.316177      0.314063
    1419.7001     44.821350      0.309531
    1419.8001     46.263641      0.306731
    1419.9001     47.991295      0.304931
    1420.0001     49.224998      0.304301
    1420.1001     49.566093      0.302455
    1420.2001     49.639671      0.295110
    1420.3001     50.094803      0.285012
    1420.4001     51.418846      0.275957
    1420.5001     53.471367      0.266496
    1420.6001     55.608925      0.260891
    1420.7001     56.857376      0.259816
    1420.8001     56.725250      0.255889
    1420.9001     55.180542      0.253087
    1421.0001     53.052780      0.254973
    1421.1001     51.245468      0.253783
    1421.2001     50.523064      0.251152
    1421.3001     51.027756      0.251449
    1421.4001     52.574829      0.250755
    1421.5001     54.345161      0.247388
    1421.6001     55.527672      0.243163
    1421.7001     55.655579      0.240315
    1421.8001     54.575912      0.239325
    1421.9001     52.736069      0.239476
    1422.0001     50.852768      0.240459
    1422.1001     49.318565      0.241231
    1422.2001     48.097618      0.240760
    1422.3001     46.991501      0.239617
    1422.4001     45.913445      0.242716
    1422.5001     44.895081      0.254073
    1422.6001     44.128357      0.268743
    1422.7001     43.730782      0.280367
    1422.8001     43.661133      0.284485
    1422.9001     43.715935      0.275583
    1423.0001     43.547592      0.258328
    1423.1001     42.963005      0.242712
    1423.2001     41.652603      0.230476
    1423.3001     39.725624      0.221661
    1423.4001     37.584343      0.218712
    1423.5001     35.880684      0.219604
    1423.6001     34.978004      0.221417
    1423.7001     34.794220      0.224328
    1423.8001     35.361336      0.228976
    1423.9001     36.583855      0.233603
    1424.0001     38.372765      0.234851
    1424.1001     40.770348      0.235191
    1424.2001     43.400658      0.236780
    1424.3001     45.792053      0.234394
    1424.4001     47.102791      0.227460
    1424.5001     46.888268      0.220237
    1424.6001     45.364311      0.213959
    1424.7001     42.740044      0.207945
    1424.8001     39.760025      0.201926
    1424.9001     37.066841      0.199706
    1425.0001     35.227196      0.202132
    1425.1001     34.211067      0.205493
    1425.2001     33.811340      0.210048
    1425.3001     33.761482      0.214546
    1425.4001     33.588768      0.216524
    1425.5001     33.334343      0.216158
    1425.6001     33.070709      0.214045
    1425.7001     32.890610      0.210416
    1425.8001     33.179230      0.205876
    1425.9001     34.321205      0.201862
    1426.0001     36.057755      0.199544
    1426.1001     38.454575      0.200705
    1426.2001     41.556198      0.207215
    1426.3001     44.732941      0.219969
    1426.4001     47.594452      0.236096
    1426.5001     49.664482      0.251973
    1426.6001     51.211571      0.272416
    1426.7001     52.314514      0.292703
    1426.8001     53.461617      0.302812
    1426.9001     55.183777      0.303875
    1427.0001     57.460220      0.295142
    1427.1001     60.072426      0.280165
    1427.2001     62.783920      0.265458
    1427.3001     64.848389      0.256767
    1427.4001     64.870682      0.256227
    1427.5001     63.784935      0.257771
    1427.6001     61.373291      0.256750
    1427.7001     57.821205      0.252465
    1427.8001     53.998764      0.247982
    1427.9001     50.440331      0.244670
    1428.0001     48.167885      0.240860
    1428.1001     46.221817      0.239315
    1428.2001     44.375069      0.240428
    1428.3001     43.039886      0.238304
    1428.4001     42.018341      0.235513
    1428.5001     41.226440      0.233223
    1428.6001     40.276215      0.226808
    1428.7001     38.997887      0.218401
    1428.8001     37.299332      0.211142
    1428.9001     35.583542      0.203450
    1429.0001     34.103561      0.194208
    1429.1001     33.224663      0.184130
    1429.2001     32.636810      0.176562
    1429.3001     32.326820      0.171206
    1429.4001     32.155830      0.168813
    1429.5001     31.677837      0.173436
    1429.6001     30.774536      0.182822
    1429.7001     29.377556      0.193140
    1429.8001     27.860306      0.208938
    1429.9001     26.673279      0.224492
    1430.0001     26.349869      0.231138
    1430.1001     26.629921      0.230974
    1430.2001     27.872929      0.223454
    1430.3001     30.393681      0.212258
    1430.4001     34.122688      0.205200
    1430.5001     38.646751      0.205441
    1430.6001     43.030609      0.209247
    1430.7001     46.817841      0.211291
    1430.8001     50.065781      0.205948
    1430.9001     52.822670      0.192858
    1431.0001     54.180481      0.177823
    1431.1001     53.784081      0.165020
    1431.2001     52.346046      0.156240
    1431.3001     50.466240      0.157018
    1431.4001     48.887047      0.167285
    1431.5001     48.175133      0.182192
    1431.6001     48.688736      0.201103
    1431.7001     50.442551      0.220364
    1431.8001     52.892456      0.234619
    1431.9001     55.609245      0.239994
    1432.0001     57.908073      0.236520
    1432.1001     59.387749      0.226405
    1432.2001     59.853226      0.212713
    1432.3001     59.425858      0.197868
    1432.4001     58.453415      0.182567
    1432.5001     57.219208      0.170260
    1432.6001     56.161400      0.162526
    1432.7001     55.527344      0.158064
    1432.8001     55.516273      0.155006
    1432.9001     56.034424      0.151185
    1433.0001     56.880257      0.145428
    1433.1001     58.416748      0.141464
    1433.2001     60.868210      0.142508
    1433.3001     64.219238      0.149682
    1433.4001     67.614227      0.160568
    1433.5001     70.304596      0.171366
    1433.6001     71.955200      0.178633
    1433.7001     72.305008      0.182187
    1433.8001     71.611816      0.183625
    1433.9001     70.161865      0.183414
    1434.0001     68.510315      0.182884
    1434.1001     66.994522      0.183412
    1434.2001     65.365936      0.185660
    1434.3001     63.653114      0.190765
    1434.4001     62.144760      0.197953
    1434.5001     61.255692      0.201205
    1434.6001     61.181717      0.197993
    1434.7001     61.669418      0.190582
    1434.8001     62.338768      0.181068
    1434.9001     62.772957      0.172820
    1435.0001     62.740921      0.168565
    1435.1001     62.180878      0.168035
    1435.2001     61.110458      0.169346
    1435.3001     59.800026      0.170750
    1435.4001     58.384552      0.171574
    1435.5001     57.078720      0.171160
    1435.6001     56.071655      0.168742
    1435.7001     55.542099      0.162774
    1435.8001     55.696968      0.153118
    1435.9001     56.374550      0.141916
    1436.0001     57.394226      0.133296
