# LAS format data
~Version Information
VERS.     2.00: CWLS LOG ASCII STANDARD - VERSION 2.0
WRAP.       NO: ONE LINE PER DEPTH STEP
~Well Information
#MNEM   .UNITS    DATA                           DESCRIPTION
#----   ------    ----                           -----------
STRT    .M        1397.9001                     :First Index Value
STOP    .M        1453.6002                     :Last Index Value
STEP    .M        0.1000                        :Frame Spacing
NULL    .         -999.2500                     :Absent Value
WELL    .         MED-05                   :Well Name   
FLD     .         WASSENAAR                     :Field Name  
CNTY    .                                       :County
STAT    .                                       :State
CTRY    .                                       :Country
LOC     .                                       :Location
API     .                                       :API Number
DATE    .                                       :Date
COMP    .         NAM                           :Company Name
SRVC    .                                       :Service Company
~Parameter Information
#MNEM   .UNITS    VALUE                          DESCRIPTION
#----   ------    -----                          -----------
TDL     .M        1406.00000                    :Total Depth (Logger)
TDD     .M        1406.00000                    :Total Depth (Driller)   
UBID    .         1605                          :Unique Borehole Id  
PDAT    .         Mean Sea Levl                 :Permanent Datum 
EPD     .M           0.00000                    :Elevation of Permanent Datum (PDAT) above Mean Sea Level
LMF     .         Rotary Table                  :Logging Measured From (Name of Logging Elevation Reference) 
APD     .M           8.77000                    :Elevation of Depth Reference (LMF) Above Permanent Datum
~Curve Information
#MNEM   .UNITS    API CODE                       CURVE DESCRIPTION
#----   ------    --------                       -----------------
DEPT    .M                                      :1     Index curve
GR      .GAPI                                   :2     SNAM  
NPHI    .V/V                                    :3     SNAM  
~Ascii Log Data
    1397.9001   -999.250000   -999.250000
    1398.0001   -999.250000   -999.250000
    1398.1001   -999.250000   -999.250000
    1398.2001     43.602303   -999.250000
    1398.3001     43.934181   -999.250000
    1398.4001     44.276489   -999.250000
    1398.5001     44.655960   -999.250000
    1398.6001     44.998199   -999.250000
    1398.7001     45.199425   -999.250000
    1398.8001     44.989967   -999.250000
    1398.9001     44.251114   -999.250000
    1399.0001     43.215752   -999.250000
    1399.1001     42.158096   -999.250000
    1399.2001     41.390907   -999.250000
    1399.3001     41.068558   -999.250000
    1399.4001     41.190712   -999.250000
    1399.5001     41.481285   -999.250000
    1399.6001     41.724937   -999.250000
    1399.7001     41.905258   -999.250000
    1399.8001     42.130180   -999.250000
    1399.9001     42.499565   -999.250000
    1400.0001     42.934555      0.244109
    1400.1001     43.259300      0.249576
    1400.2001     43.278992      0.249629
    1400.3001     43.037430      0.244266
    1400.4001     42.739464      0.236611
    1400.5001     42.515427      0.230549
    1400.6001     42.439636      0.231060
    1400.7001     42.511452      0.241619
    1400.8001     42.748833      0.259688
    1400.9001     43.114288      0.279722
    1401.0001     43.540245      0.296416
    1401.1001     44.329086      0.302531
    1401.2001     45.672569      0.299101
    1401.3001     47.571579      0.292549
    1401.4001     50.131134      0.285134
    1401.5001     52.952744      0.278007
    1401.6001     55.564095      0.273561
    1401.7001     57.629791      0.272359
    1401.8001     59.054382      0.273937
    1401.9001     59.870560      0.278692
    1402.0001     59.881805      0.284290
    1402.1001     59.136871      0.290017
    1402.2001     57.741447      0.299586
    1402.3001     55.768456      0.310042
    1402.4001     53.473030      0.317914
    1402.5001     51.168243      0.325830
    1402.6001     49.533630      0.331997
    1402.7001     48.854332      0.334044
    1402.8001     49.177505      0.336038
    1402.9001     50.140488      0.341190
    1403.0001     51.112358      0.347976
    1403.1001     51.605553      0.349722
    1403.2001     51.409142      0.344910
    1403.3001     50.758636      0.337460
    1403.4001     50.195381      0.328226
    1403.5001     50.226952      0.321392
    1403.6001     50.923401      0.322220
    1403.7001     51.930504      0.327087
    1403.8001     52.672997      0.331548
    1403.9001     52.783928      0.335556
    1404.0001     52.273369      0.333437
    1404.1001     51.510292      0.323160
    1404.2001     51.135178      0.313080
    1404.3001     51.038910      0.305619
    1404.4001     50.840675      0.299910
    1404.5001     50.228104      0.294642
    1404.6001     49.160042      0.290169
    1404.7001     47.968857      0.285743
    1404.8001     47.439934      0.278341
    1404.9001     47.800011      0.273190
    1405.0001     48.727074      0.278718
    1405.1001     49.239426      0.285629
    1405.2001     48.763420      0.290288
    1405.3001     46.991806      0.294834
    1405.4001     44.731056      0.299832
    1405.5001     42.362892      0.304664
    1405.6001     40.802322      0.307404
    1405.7001     39.996361      0.309419
    1405.8001     40.078239      0.308504
    1405.9001     40.611740      0.299704
    1406.0001     41.234711      0.289521
    1406.1001     41.823715      0.286781
    1406.2001     42.628998      0.292444
    1406.3001     44.031029      0.306169
    1406.4001     46.631081      0.325584
    1406.5001     50.389008      0.345742
    1406.6001     54.501717      0.360654
    1406.7001     57.992210      0.364199
    1406.8001     60.695816      0.365624
    1406.9001     62.634537      0.365124
    1407.0001     63.838478      0.363040
    1407.1001     64.959381      0.360402
    1407.2001     66.423492      0.357382
    1407.3001     68.888275      0.353633
    1407.4001     71.732162      0.347917
    1407.5001     74.880020      0.340611
    1407.6001     78.185303      0.333899
    1407.7001     81.096573      0.329350
    1407.8001     83.606003      0.325972
    1407.9001     85.637863      0.322459
    1408.0001     86.518143      0.324118
    1408.1001     86.442413      0.327118
    1408.2001     86.400101      0.321594
    1408.3001     86.644302      0.312722
    1408.4001     87.062073      0.299422
    1408.5001     86.886017      0.280465
    1408.6001     84.989365      0.268230
    1408.7001     81.148468      0.266638
    1408.8001     76.582245      0.268026
    1408.9001     71.299667      0.274232
    1409.0001     65.896469      0.283547
    1409.1001     61.777527      0.290612
    1409.2001     59.013931      0.297585
    1409.3001     57.848404      0.305848
    1409.4001     57.946495      0.313912
    1409.5001     59.118454      0.319821
    1409.6001     61.608002      0.321433
    1409.7001     65.187653      0.318706
    1409.8001     68.588867      0.312718
    1409.9001     70.527542      0.305189
    1410.0001     70.934418      0.297769
    1410.1001     70.014130      0.295825
    1410.2001     68.238037      0.299166
    1410.3001     66.205048      0.302358
    1410.4001     63.970825      0.308021
    1410.5001     61.742752      0.316348
    1410.6001     59.836807      0.323178
    1410.7001     58.849449      0.331630
    1410.8001     58.473198      0.341754
    1410.9001     57.871628      0.346863
    1411.0001     55.736115      0.346346
    1411.1001     51.781128      0.342338
    1411.2001     46.633469      0.334579
    1411.3001     41.259064      0.326607
    1411.4001     36.474976      0.320293
    1411.5001     32.726639      0.312409
    1411.6001     30.583591      0.302278
    1411.7001     29.963036      0.291139
    1411.8001     30.579647      0.280056
    1411.9001     32.246490      0.273609
    1412.0001     34.536781      0.273420
    1412.1001     37.102577      0.275027
    1412.2001     39.007492      0.280539
    1412.3001     39.811371      0.292030
    1412.4001     39.818489      0.301940
    1412.5001     39.706497      0.308223
    1412.6001     40.024734      0.312405
    1412.7001     41.376404      0.307500
    1412.8001     43.805527      0.292996
    1412.9001     46.919067      0.275366
    1413.0001     50.830208      0.263013
    1413.1001     54.848328      0.257285
    1413.2001     58.294716      0.254329
    1413.3001     61.467995      0.257170
    1413.4001     65.551498      0.267513
    1413.5001     71.338089      0.282740
    1413.6001     75.166580      0.295408
    1413.7001     78.715561      0.296021
    1413.8001     88.208298      0.278037
    1413.9001     95.352127      0.242051
    1414.0001     94.383286      0.202267
    1414.1001     91.059982      0.178454
    1414.2001     82.343994      0.182417
    1414.3001     69.809326      0.205555
    1414.4001     63.805374      0.228233
    1414.5001     58.458145      0.234493
    1414.6001     46.834038      0.222037
    1414.7001     38.169029      0.198926
    1414.8001     34.109535      0.176164
    1414.9001     31.732006      0.163873
    1415.0001     30.558426      0.164468
    1415.1001     30.522266      0.179562
    1415.2001     31.141438      0.206661
    1415.3001     32.526154      0.243185
    1415.4001     34.473740      0.280187
    1415.5001     36.759766      0.301709
    1415.6001     42.603767      0.308359
    1415.7001     53.044899      0.305891
    1415.8001     62.243240      0.306715
    1415.9001     70.031021      0.313426
    1416.0001     76.004944      0.326431
    1416.1001     80.379013      0.337164
    1416.2001     83.060013      0.341939
    1416.3001     83.742325      0.338238
    1416.4001     83.736801      0.331680
    1416.5001     83.297638      0.323792
    1416.6001     82.690964      0.315322
    1416.7001     82.100647      0.304795
    1416.8001     81.199234      0.299097
    1416.9001     79.314713      0.305406
