# LAS format data
~Version Information
VERS.     2.00: CWLS LOG ASCII STANDARD - VERSION 2.0
WRAP.       NO: ONE LINE PER DEPTH STEP
~Well Information
#MNEM   .UNITS    DATA                           DESCRIPTION
#----   ------    ----                           -----------
STRT    .M        1264.8000                     :First Index Value
STOP    .M        1305.4001                     :Last Index Value
STEP    .M        0.1000                        :Frame Spacing
NULL    .         -999.2500                     :Absent Value
WELL    .         WAS-25                  :Well Name   
FLD     .         WASSENAAR                     :Field Name  
CNTY    .                                       :County
STAT    .                                       :State
CTRY    .                                       :Country
LOC     .                                       :Location
API     .                                       :API Number
DATE    .                                       :Date
COMP    .         NAM                           :Company Name
SRVC    .                                       :Service Company
~Parameter Information
#MNEM   .UNITS    VALUE                          DESCRIPTION
#----   ------    -----                          -----------
TDL     .M        1297.00000                    :Total Depth (Logger)
TDD     .M        1297.00000                    :Total Depth (Driller)   
UBID    .         2406                          :Unique Borehole Id  
PDAT    .         Mean Sea Level                :Permanent Datum 
EPD     .M           0.00000                    :Elevation of Permanent Datum (PDAT) above Mean Sea Level
LMF     .         Rotary Table                  :Logging Measured From (Name of Logging Elevation Reference) 
APD     .M           4.62000                    :Elevation of Depth Reference (LMF) Above Permanent Datum
~Curve Information
#MNEM   .UNITS    API CODE                       CURVE DESCRIPTION
#----   ------    --------                       -----------------
DEPT    .M                                      :1     Index curve
GR      .GAPI                                   :2     SNAM  
NPHI    .V/V                                    :3     SNAM  
~Ascii Log Data
# ...
    1283.9001     30.340725      0.149377
    1284.0001     32.059502      0.149300
    1284.1001     33.724770      0.151326
    1284.2001     35.310684      0.157563
    1284.3001     35.824120      0.175209
    1284.4001     35.435715      0.189647
    1284.5001     34.167854      0.193360
    1284.6001     32.808357      0.186644
    1284.7001     31.897400      0.172723
    1284.8001     31.966560      0.152060
    1284.9001     33.923683      0.138614
    1285.0001     36.186661      0.132320
    1285.1001     37.715294      0.136683
    1285.2001     38.658539      0.158614
    1285.3001     38.577316      0.187164
    1285.4001     36.372025      0.216586
    1285.5001     34.596321      0.234825
    1285.6001     33.095840      0.239912
    1285.7001     31.652069      0.216693
    1285.8001     32.174339      0.198125
    1285.9001     34.415741      0.184380
    1286.0001     40.380562      0.179022
    1286.1001     48.671478      0.184003
    1286.2001     59.105713      0.193116
    1286.3001     76.466812      0.190619
    1286.4001     95.057159      0.196371
    1286.5001    113.591263      0.205656
    1286.6001    130.374207      0.192434
    1286.7001    139.947571      0.180012
    1286.8001    142.384430      0.169150
    1286.9001    134.109680      0.148635
    1287.0001    122.885956      0.137624
    1287.1001    110.012192      0.137976
    1287.2001    102.714249      0.149543
    1287.3001    100.060928      0.163351
    1287.4001    101.726746      0.176803
    1287.5001    104.412338      0.178417
    1287.6001    105.178040      0.175114
    1287.7001    102.607666      0.168030
    1287.8001     95.847946      0.155257
    1287.9001     88.634354      0.144892
    1288.0001     83.173996      0.141161
    1288.1001     80.300262      0.138286
    1288.2001     79.635239      0.138144
    1288.3001     81.443481      0.142583
    1288.4001     83.950287      0.144442
    1288.5001     85.534973      0.142533
    1288.6001     84.660172      0.138068
    1288.7001     81.186661      0.137596
    1288.8001     75.748505      0.141725
    1288.9001     68.985245      0.149606
    1289.0001     63.025810      0.157888
    1289.1001     59.215782      0.164381
    1289.2001     58.501694      0.168780
    1289.3001     59.566536      0.174902
    1289.4001     61.988274      0.180945
    1289.5001     65.454529      0.180287
    1289.6001     67.374344      0.170934
    1289.7001     67.423981      0.156544
    1289.8001     66.591171      0.143855
    1289.9001     64.189407      0.136697
    1290.0001     60.857162      0.136146
    1290.1001     58.635353      0.141479
    1290.2001     57.485123      0.148113
    1290.3001     57.465019      0.153385
    1290.4001     59.447823      0.157739
    1290.5001     62.881996      0.161970
    1290.6001     66.815994      0.165783
    1290.7001     70.516495      0.167980
    1290.8001     73.825668      0.168792
    1290.9001     76.259216      0.169403
    1291.0001     76.890442      0.169665
    1291.1001     76.298386      0.166216
    1291.2001     74.870438      0.158428
    1291.3001     72.458572      0.151447
    1291.4001     70.625473      0.147956
    1291.5001     70.274948      0.149237
    1291.6001     70.165695      0.156488
    1291.7001     70.326096      0.165182
    1291.8001     71.255127      0.168508
    1291.9001     72.007233      0.164785
    1292.0001     72.609894      0.160281
    1292.1001     73.551331      0.161174
    1292.2001     74.250000      0.165121
    1292.3001     74.701767      0.166227
    1292.4001     75.190659      0.160909
    1292.5001     75.190948      0.152192
    1292.6001     74.669067      0.145734
    1292.7001     73.930344      0.146236
    1292.8001     72.757553      0.152992
    1292.9001     71.411560      0.161203
    1293.0001     70.696259      0.164851
    1293.1001     70.741470      0.163513
    1293.2001     71.236938      0.159528
    1293.3001     71.840576      0.155732
    1293.4001     72.898926      0.152120
    1293.5001     74.500305      0.148849
    1293.6001     76.404877      0.147572
    1293.7001     78.931030      0.147770
    1293.8001     82.200546      0.149352
    1293.9001     85.726654      0.153266
    1294.0001     88.512589      0.158654
    1294.1001     90.467224      0.166541
    1294.2001     93.193207      0.180616
    1294.3001     95.709488      0.191039
    1294.4001     97.068649      0.189359
    1294.5001     97.140121      0.174747
    1294.6001     95.291473      0.155120
    1294.7001     90.239029      0.134330
    1294.8001     83.607162      0.118336
    1294.9001     76.610809      0.108015
    1295.0001     69.644806      0.105199
    1295.1001     63.735939      0.102383
    1295.2001     58.980186      0.100939
    1295.3001     56.520111      0.105699
    1295.4001     55.269943      0.109205
    1295.5001     54.908180      0.112858
    1295.6001     56.201927      0.122562
    1295.7001     58.480247      0.138439
    1295.8001     61.929970      0.160261
    1295.9001     68.639862      0.191704
    1296.0001     74.919144      0.218918
    1296.1001     80.180847      0.240596
    1296.2001     81.124893      0.248999
    1296.3001     80.201599      0.252211
    1296.4001     77.739990      0.251027
    1296.5001     77.369186      0.252913
    1296.6001     77.810684      0.249646
    1296.7001     79.101471      0.240606
    1296.8001     80.118790      0.239345
    1296.9001     80.056427      0.234419
    1297.0001     78.658325      0.224495
    1297.1001     77.895447      0.218286
    1297.2001     77.109482      0.209882
    1297.3001     76.070496      0.197692
    1297.4001     74.319046      0.191338
    1297.5001     72.401321      0.187536
    1297.6001     70.564468      0.185428
    1297.7001     69.041901      0.183583
    1297.8001     68.087646      0.183323
    1297.9001     68.002228      0.188315
    1298.0001     68.192673      0.210502
    1298.1001     68.791428      0.237475
    1298.2001     70.206909      0.258883
    1298.3001     71.799667      0.269918
    1298.4001     73.362076      0.270726
    1298.5001     74.610001      0.258669
    1298.6001     74.260437      0.245711
    1298.7001     72.632401      0.236283
    1298.8001     70.120132      0.230022
    1298.9001     67.367874      0.211977
    1299.0001     64.993576      0.186778
    1299.1001     64.012939      0.169308
    1299.2001     63.663155      0.157299
    1299.3001     63.465370      0.151156
    1299.4001     63.282028      0.156223
    1299.5001     63.306099      0.161379
    1299.6001     63.776894      0.162730
    1299.7001     65.158478      0.163957
    1299.8001     67.497238      0.171401
    1299.9001     70.386246      0.186078
    1300.0001     72.951508      0.202793
    1300.1001     75.414352      0.217599
    1300.2001     77.537399      0.227288
    1300.3001     78.410446      0.229997
    1300.4001     78.531921      0.231184
    1300.5001     77.724472      0.231367
    1300.6001     75.117752      0.225357
    1300.7001     72.132980      0.217732
    1300.8001     70.225220      0.213940
    1300.9001     69.231125      0.213623
    1301.0001     69.022995      0.218805
    1301.1001     69.575409      0.229373
    1301.2001     70.477112      0.238227
    1301.3001     71.709396      0.241230
    1301.4001     73.994431      0.239774
    1301.5001     77.709503      0.237388
    1301.6001     81.262070      0.233486
    1301.7001     82.881973      0.225681
    1301.8001     82.918564      0.216926
    1301.9001     81.149536      0.214484
    1302.0001     77.674088      0.225901
    1302.1001     75.420258      0.250779
    1302.2001     75.354141      0.277653
    1302.3001     76.398270      0.292614
    1302.4001     78.702591      0.292404
    1302.5001     82.087097      0.281419
    1302.6001     85.758148      0.271332
    1302.7001     89.694778      0.280238
    1302.8001     93.352066      0.309472
    1302.9001     95.449631      0.341453
