~Version ---------------------------------------------------
VERS.     2.0 : CWLS log ASCII Standard -VERSION 2.0
WRAP.      NO : ONE LINE PER DEPTH STEP
~Well ------------------------------------------------------
STRT.M                       1890.7 : First Index Value
STOP.M                    1974.8001 : Last Index Value
STEP.M          0.09999999999990905 : Frame Spacing
NULL.                       -999.25 : Absent Value
WELL.                        GRW-01 : Well Name
FLD .     LEEUWARDEN 101 ROTLIEGEND : Field Name
CNTY.                               : County
STAT.                               : State
CTRY.                               : Country
LOC .                               : Location
API .                               : API Number
DATE.                               : Date
COMP.                           PET : Company Name
SRVC.                               : Service Company
~Curves ----------------------------------------------------
DEPT.M         : 
GR  .GAPI      : 
DT  .US/F      : 
RHOB.G/C3      : 
DRHO.G/C3      : 
NPHI.V/V       : 
~Params ----------------------------------------------------
TDD .M            1980.0 : Total Depth (Driller)
UBID.               1348 : Unique Borehole Id
PDAT.     Mean Sea Level : Permanent Datum
EPD .M               0.0 : Elevation of Permanent Datum (PDAT) above Mean Sea Level
LMF .                    : Logging Measured From (Name of Logging Elevation Reference)
APD .M               5.0 : Elevation of Depth Reference (LMF) Above Permanent Datum
~Other -----------------------------------------------------
~ASCII -----------------------------------------------------
# ...
     1902.7     103.74     106.89      2.188   0.071011    0.43096
     1902.8     105.54     106.82     2.1747   0.069367    0.42436
     1902.9     106.29     106.73     2.1673   0.067509     0.4114
       1903     105.86     106.63     2.1627   0.064986    0.39581
     1903.1     104.72     106.53     2.1555   0.060464    0.37795
     1903.2     103.16      106.5      2.142   0.054134    0.36396
     1903.3     101.68      106.5     2.1233   0.047502    0.35675
     1903.4     101.08     106.43     2.1012   0.040926    0.35203
     1903.5      101.3     106.19     2.0782   0.033843    0.34989
     1903.6     101.64      105.9     2.0588   0.027074    0.35072
     1903.7     101.68     105.66     2.0449   0.022077     0.3523
     1903.8     101.38     105.53     2.0379   0.019142    0.35293
     1903.9     100.87     105.52      2.039   0.017789    0.35162
       1904     100.18     105.54     2.0477   0.018047     0.3486
     1904.1     99.346     105.64     2.0639   0.019284    0.34525
     1904.2     98.608      105.9      2.085   0.020231    0.34287
     1904.3     98.023     106.14     2.1064   0.020879    0.34246
     1904.4     97.447     106.27     2.1245   0.019737    0.34577
     1904.5     96.798     106.37     2.1357   0.016037    0.35276
     1904.6     96.302     106.53     2.1391    0.01321    0.35925
     1904.7     95.947     106.67     2.1372   0.012803    0.36394
     1904.8     95.654     106.76     2.1331    0.01293    0.36707
     1904.9     95.551     106.85     2.1291   0.012997    0.36896
       1905     95.561     106.81     2.1282    0.01331    0.37156
     1905.1     95.357     106.73     2.1316   0.016465    0.37873
     1905.2     95.187     106.64     2.1375    0.02383    0.38757
     1905.3     95.328     106.46     2.1413   0.029192    0.38961
     1905.4     95.563     106.26     2.1377   0.029076    0.38459
     1905.5     95.822     106.06     2.1253   0.027132     0.3711
     1905.6     96.018     105.86     2.1063   0.023705    0.35032
     1905.7     96.055     105.67     2.0853   0.018766    0.33204
     1905.8     96.076     105.46     2.0709    0.01365    0.32497
     1905.9     96.372     105.32     2.0715   0.011855    0.32297
       1906     96.613      105.3     2.0843   0.017238    0.32718
     1906.1      96.65     105.35      2.106   0.024434    0.33618
     1906.2     96.848     105.54     2.1274   0.029004    0.34661
     1906.3     97.471     105.68     2.1425   0.026052    0.35692
     1906.4     98.299      105.7     2.1492   0.019627    0.36706
     1906.5     99.251      105.7     2.1507    0.01337    0.37736
     1906.6     100.47      105.7     2.1518   0.005582    0.38946
     1906.7     101.55      105.7     2.1552  -0.001248      0.399
     1906.8     102.04     105.79      2.163  -0.002811    0.40494
     1906.9     101.78     106.11     2.1761  -0.002321    0.40534
       1907     100.72     106.33     2.1916    6.4e-05    0.39887
     1907.1     99.739     106.77     2.2079   0.004733    0.39049
     1907.2     98.811     107.09     2.2232   0.013117    0.38357
     1907.3     98.612      107.1     2.2332   0.021564    0.37883
     1907.4     99.309     107.06     2.2373   0.024443    0.37848
     1907.5     100.45     106.87     2.2352   0.023169    0.37868
     1907.6     101.49     106.67     2.2288   0.018784    0.37585
     1907.7     102.36      106.5     2.2175   0.012716    0.37055
     1907.8     102.64     106.56     2.2069   0.008958    0.36713
     1907.9     102.36     106.96     2.1964   0.007802    0.36607
       1908     102.47     107.43     2.1845   0.016415    0.36593
     1908.1     102.96     107.74     2.1725   0.025909    0.37548
     1908.2      104.3     108.17     2.1579   0.031163     0.3831
     1908.3     104.41     108.72     2.1407   0.036722    0.38388
     1908.4     103.96     108.96     2.1248   0.041421    0.38069
     1908.5     102.54     109.37     2.1127   0.042403     0.3747
     1908.6     101.49     109.74      2.108   0.041751    0.37001
     1908.7     100.33     109.97     2.1105   0.040411    0.37158
     1908.8     99.732      110.3     2.1167   0.035862    0.37249
     1908.9      99.55     110.29      2.123   0.029789    0.38083
       1909     99.645     110.23     2.1244   0.022173    0.38743
     1909.1     99.553     110.07     2.1195   0.006831    0.38785
     1909.2     99.782      109.8     2.1102  -0.013344    0.38682
     1909.3     100.06     109.23     2.0963  -0.037372    0.38175
     1909.4     100.26     108.88     2.0803  -0.067147    0.37578
     1909.5     100.17     108.54     2.0696  -0.092551    0.36975
     1909.6     99.501     107.66     2.0609   -0.11168    0.36638
     1909.7     98.637     107.27     2.0612   -0.10945     0.3644
     1909.8     97.504        107     2.0712  -0.092819    0.36415
     1909.9     96.918     106.69     2.0883  -0.066517    0.36609
       1910     96.907     106.64     2.1059  -0.031349    0.37158
     1910.1     96.987     106.54     2.1255  -0.000576    0.37772
     1910.2     97.087     106.55     2.1385   0.020176    0.38556
     1910.3     96.463     106.74     2.1448   0.038466    0.38914
     1910.4      95.43        107     2.1438   0.049816    0.38985
     1910.5     93.725     107.33     2.1367   0.046418    0.38876
     1910.6     92.013     107.58     2.1257    0.03901    0.38636
     1910.7     91.703      107.9     2.1113   0.031436    0.38086
     1910.8     92.769      108.3     2.0983   0.025137    0.37465
     1910.9     94.907     108.88      2.091   0.022037    0.37063
       1911     97.098     109.08     2.0916    0.01939    0.36796
     1911.1     98.705      109.1     2.0958   0.018261    0.36942
     1911.2     99.177      109.1     2.1035   0.020238    0.37603
     1911.3     98.759     109.04     2.1121   0.023034    0.38239
     1911.4      97.96     108.92     2.1219   0.025759    0.38511
     1911.5     97.067     108.95     2.1336   0.028166    0.38472
     1911.6     96.252     109.11     2.1472   0.030258    0.37657
     1911.7     95.783     109.36     2.1604   0.032541    0.36295
     1911.8     95.789     109.74     2.1707   0.035741     0.3559
     1911.9     96.264     110.09     2.1762   0.039883    0.35357
       1912     97.105     110.27     2.1777   0.044309    0.35499
     1912.1     98.172     110.36     2.1767   0.050577    0.36099
     1912.2     99.481      110.4     2.1747   0.059523    0.37263
     1912.3     100.68     110.32     2.1717   0.068373     0.3862
     1912.4     101.54      110.3     2.1678   0.072416    0.39858
     1912.5     102.09     110.31     2.1639   0.071197    0.40656
     1912.6      102.5     110.18     2.1615   0.068013    0.40657
     1912.7     103.14     109.84     2.1622   0.064541    0.39616
     1912.8     103.96     109.29      2.165   0.063221    0.38067
     1912.9     104.53      108.6     2.1645   0.063049    0.36642
       1913     104.86     107.69     2.1557   0.062218    0.35455
     1913.1     104.75     106.58     2.1377   0.059931    0.34822
     1913.2     103.74     105.59     2.1157   0.056776    0.35516
     1913.3     102.05     104.83      2.097   0.053817    0.36801
     1913.4     100.42     104.27     2.0848   0.051486    0.37386
     1913.5     99.572     103.98     2.0907   0.049499    0.37304
     1913.6     99.616     103.91     2.1175   0.046879    0.36933
     1913.7     100.14     104.03     2.1461   0.042069    0.36368
     1913.8     100.47     104.36      2.167   0.035178    0.35671
     1913.9     99.979      104.7     2.1816   0.027337    0.35079
       1914      98.65     105.02     2.1888   0.014212    0.34785
     1914.1     96.835     105.39     2.1912   0.001357    0.34728
     1914.2     94.533     105.78     2.1942  -0.002976    0.34989
     1914.3       92.4     106.11     2.2002  -0.003273    0.35621
     1914.4     91.368     106.48     2.2107   0.000535    0.36408
     1914.5     91.358     106.88     2.2261   0.010969    0.37214
     1914.6     91.898     107.14     2.2422   0.021275     0.3808
