# LAS format data
~Version Information
VERS.     2.00: CWLS LOG ASCII STANDARD - VERSION 2.0
WRAP.       NO: ONE LINE PER DEPTH STEP
~Well Information
#MNEM   .UNITS    DATA                           DESCRIPTION
#----   ------    ----                           -----------
STRT    .M        1305.9001                     :First Index Value
STOP    .M        1367.8002                     :Last Index Value
STEP    .M        0.1000                        :Frame Spacing
NULL    .         -999.2500                     :Absent Value
WELL    .         MED-01                   :Well Name   
FLD     .         WASSENAAR                     :Field Name  
CNTY    .                                       :County
STAT    .                                       :State
CTRY    .                                       :Country
LOC     .                                       :Location
API     .                                       :API Number
DATE    .                                       :Date
COMP    .         NAM                           :Company Name
SRVC    .                                       :Service Company
~Parameter Information
#MNEM   .UNITS    VALUE                          DESCRIPTION
#----   ------    -----                          -----------
TDL     .M        1726.00000                    :Total Depth (Logger)
TDD     .M        1726.00000                    :Total Depth (Driller)   
UBID    .         1601                          :Unique Borehole Id  
PDAT    .         Mean Sea Level                :Permanent Datum 
EPD     .M           0.00000                    :Elevation of Permanent Datum (PDAT) above Mean Sea Level
LMF     .         Rotary Table                  :Logging Measured From (Name of Logging Elevation Reference) 
APD     .M           8.68000                    :Elevation of Depth Reference (LMF) Above Permanent Datum
~Curve Information
#MNEM   .UNITS    API CODE                       CURVE DESCRIPTION
#----   ------    --------                       -----------------
DEPT    .M                                      :1     Index curve
GR      .GAPI                                   :2     SNAM  
NPHI    .V/V                                    :3     SNAM  
~Ascii Log Data
    1305.9001   -999.250000   -999.250000
    1306.0001   -999.250000   -999.250000
    1306.1001   -999.250000   -999.250000
    1306.2001   -999.250000   -999.250000
    1306.3001   -999.250000   -999.250000
    1306.4001   -999.250000   -999.250000
    1306.5001   -999.250000   -999.250000
    1306.6001   -999.250000   -999.250000
    1306.7001   -999.250000   -999.250000
    1306.8001   -999.250000   -999.250000
    1306.9001   -999.250000   -999.250000
    1307.0001   -999.250000   -999.250000
    1307.1001   -999.250000   -999.250000
    1307.2001   -999.250000   -999.250000
    1307.3001   -999.250000   -999.250000
    1307.4001   -999.250000   -999.250000
    1307.5001   -999.250000   -999.250000
    1307.6001   -999.250000   -999.250000
    1307.7001   -999.250000   -999.250000
    1307.8001   -999.250000   -999.250000
    1307.9001   -999.250000   -999.250000
    1308.0001   -999.250000   -999.250000
    1308.1001   -999.250000   -999.250000
    1308.2001   -999.250000   -999.250000
    1308.3001   -999.250000   -999.250000
    1308.4001   -999.250000   -999.250000
    1308.5001   -999.250000   -999.250000
    1308.6001   -999.250000   -999.250000
    1308.7001   -999.250000   -999.250000
    1308.8001   -999.250000   -999.250000
    1308.9001   -999.250000   -999.250000
    1309.0001   -999.250000   -999.250000
    1309.1001   -999.250000   -999.250000
    1309.2001   -999.250000   -999.250000
    1309.3001   -999.250000   -999.250000
    1309.4001   -999.250000   -999.250000
    1309.5001   -999.250000   -999.250000
    1309.6001   -999.250000   -999.250000
    1309.7001   -999.250000   -999.250000
    1309.8001   -999.250000   -999.250000
    1309.9001   -999.250000   -999.250000
    1310.0001   -999.250000   -999.250000
    1310.1001     24.036343   -999.250000
    1310.2001     23.593353   -999.250000
    1310.3001     23.183815   -999.250000
    1310.4001     22.715263   -999.250000
    1310.5001     22.196625   -999.250000
    1310.6001     21.778683   -999.250000
    1310.7001     21.527294   -999.250000
    1310.8001     21.390945   -999.250000
    1310.9001     21.407074   -999.250000
    1311.0001     21.729259   -999.250000
    1311.1001     22.462288   -999.250000
    1311.2001     23.711884   -999.250000
    1311.3001     25.526958   -999.250000
    1311.4001     27.601879   -999.250000
    1311.5001     29.482597   -999.250000
    1311.6001     30.863735   -999.250000
    1311.7001     31.595211   -999.250000
    1311.8001     31.724880   -999.250000
    1311.9001     31.439972   -999.250000
    1312.0001     30.842224   -999.250000
    1312.1001     30.015160      0.250081
    1312.2001     29.284557      0.242327
    1312.3001     29.113087      0.236186
    1312.4001     29.894062      0.233627
    1312.5001     31.746178      0.236579
    1312.6001     34.322372      0.243278
    1312.7001     36.700958      0.249122
    1312.8001     37.872726      0.251176
    1312.9001     37.304886      0.248405
    1313.0001     35.212807      0.242038
    1313.1001     32.224396      0.235934
    1313.2001     29.044762      0.233139
    1313.3001     26.506161      0.232807
    1313.4001     25.314316      0.230981
    1313.5001     25.807743      0.225192
    1313.6001     27.770004      0.216234
    1313.7001     31.034294      0.205529
    1313.8001     34.938431      0.195495
    1313.9001     38.679176      0.189104
    1314.0001     41.809464      0.188350
    1314.1001     43.935997      0.191400
    1314.2001     44.866791      0.192703
    1314.3001     44.226189      0.191637
    1314.4001     42.258614      0.190218
    1314.5001     39.991188      0.190136
    1314.6001     38.369400      0.194074
    1314.7001     38.317070      0.202890
    1314.8001     41.069481      0.211355
    1314.9001     46.917488      0.217370
    1315.0001     54.239235      0.220893
    1315.1001     62.216393      0.222741
    1315.2001     69.050201      0.223401
    1315.3001     73.593567      0.223749
    1315.4001     74.611572      0.224643
    1315.5001     71.342896      0.224727
    1315.6001     65.099991      0.220162
    1315.7001     57.403572      0.218731
    1315.8001     50.121582      0.219763
    1315.9001     43.446976      0.217243
    1316.0001     39.253120      0.214350
    1316.1001     37.589775      0.212226
    1316.2001     35.961349      0.213006
    1316.3001     35.175949      0.213030
    1316.4001     35.199852      0.213702
    1316.5001     34.433334      0.223680
    1316.6001     33.118271      0.230502
    1316.7001     31.425629      0.232235
    1316.8001     29.412670      0.236776
    1316.9001     27.508503      0.233000
    1317.0001     26.107525      0.218373
    1317.1001     25.379509      0.208535
    1317.2001     25.011623      0.199535
    1317.3001     24.626888      0.190744
    1317.4001     24.266891      0.188848
    1317.5001     23.894920      0.189358
    1317.6001     23.626160      0.189023
    1317.7001     23.731445      0.190199
    1317.8001     24.160580      0.192372
    1317.9001     24.730801      0.194694
    1318.0001     25.508507      0.198207
    1318.1001     26.497150      0.203382
    1318.2001     27.653267      0.209070
    1318.3001     29.112934      0.213482
    1318.4001     30.845608      0.216699
    1318.5001     32.601425      0.218879
    1318.6001     34.161453      0.219988
    1318.7001     35.405823      0.223172
    1318.8001     36.280632      0.229088
    1318.9001     36.604439      0.231993
    1319.0001     36.340675      0.228154
    1319.1001     35.685783      0.219227
    1319.2001     34.728638      0.209634
    1319.3001     33.558159      0.203636
    1319.4001     32.230423      0.202944
    1319.5001     30.745205      0.206013
    1319.6001     29.181519      0.208835
    1319.7001     27.725174      0.208096
    1319.8001     26.608089      0.203626
    1319.9001     25.987682      0.198227
    1320.0001     25.884773      0.195395
    1320.1001     26.055504      0.197235
    1320.2001     26.157364      0.203865
    1320.3001     26.058990      0.213139
    1320.4001     25.929222      0.221256
    1320.5001     26.050461      0.225035
    1320.6001     26.602589      0.223945
    1320.7001     27.582584      0.219884
    1320.8001     28.851719      0.215190
    1320.9001     30.362507      0.212054
    1321.0001     32.205872      0.212442
    1321.1001     34.283974      0.216497
    1321.2001     36.211433      0.222124
    1321.3001     37.496468      0.226722
    1321.4001     37.786545      0.228473
    1321.5001     37.135498      0.227509
    1321.6001     36.051048      0.226563
    1321.7001     35.173843      0.228901
    1321.8001     34.937180      0.234860
    1321.9001     35.504051      0.241109
    1322.0001     36.900742      0.244355
    1322.1001     39.064064      0.244238
    1322.2001     41.701591      0.242673
    1322.3001     44.476944      0.241814
    1322.4001     47.174294      0.242353
    1322.5001     49.472244      0.242845
    1322.6001     51.023018      0.240889
    1322.7001     51.619659      0.235721
    1322.8001     51.299698      0.229172
    1322.9001     50.297424      0.223668
    1323.0001     49.045181      0.220286
    1323.1001     47.982430      0.218572
    1323.2001     47.332420      0.217415
    1323.3001     47.187347      0.215468
    1323.4001     47.701370      0.211551
    1323.5001     49.078209      0.206212
    1323.6001     51.331207      0.201724
    1323.7001     54.397049      0.199684
    1323.8001     58.061394      0.200208
    1323.9001     62.082497      0.203437
    1324.0001     66.660904      0.209072
    1324.1001     72.106415      0.214316
    1324.2001     78.208344      0.215912
    1324.3001     84.238083      0.213596
    1324.4001     89.279907      0.211014
    1324.5001     93.011169      0.210109
    1324.6001     95.597427      0.211481
    1324.7001     97.556274      0.215010
    1324.8001     99.181549      0.216441
    1324.9001    100.314682      0.210599
