~Version ---------------------------------------------------
VERS.     2.0 : CWLS log ASCII Standard -VERSION 2.0
WRAP.      NO : ONE LINE PER DEPTH STEP
~Well ------------------------------------------------------
STRT.M                1195.8001 : First Index Value
STOP.M                   1150.3 : Last Index Value
STEP.M     -0.09999999999990905 : Frame Spacing
NULL.                   -999.25 : Absent Value
WELL.                    D15-01 : Well Name
FLD .                   UNKNOWN : Field Name
CNTY.                           : County
STAT.                           : State
CTRY.                           : Country
LOC .                           : Location
API .                           : API Number
DATE.                           : Date
COMP.                       PHL : Company Name
SRVC.                           : Service Company
~Curves ----------------------------------------------------
DEPT.M         : 
GR  .GAPI      : 
DT  .US/F      : 
RHOB.G/C3      : 
DRHO.G/C3      : 
NPHI.V/V       : 
~Params ----------------------------------------------------
TDL .M            1451.0 : Total Depth (Logger)
TDD .M            1451.0 : Total Depth (Driller)
UBID.               7019 : Unique Borehole Id
PDAT.     Mean Sea Level : Permanent Datum
EPD .M               0.0 : Elevation of Permanent Datum (PDAT) above Mean Sea Level
LMF .       Rotary Table : Logging Measured From (Name of Logging Elevation Reference)
APD .M              27.4 : Elevation of Depth Reference (LMF) Above Permanent Datum
~Other -----------------------------------------------------
~ASCII -----------------------------------------------------
# ...
     1159.8      17.43     94.993     2.0522   0.052908    0.45289
     1159.7     18.024     95.454     2.0749   0.055118    0.42356
     1159.6     18.437     96.551     2.0943   0.055535    0.39584
     1159.5     18.426     97.537     2.1181     0.0558    0.38804
     1159.4     18.541     98.469       2.13   0.057699    0.39085
     1159.3     19.066     99.549     2.1251   0.063411     0.3923
     1159.2     19.509     100.72     2.1275   0.068256    0.39982
     1159.1     19.602     101.65     2.1421    0.06879    0.40926
       1159     19.525     102.12     2.1585   0.064994    0.41154
     1158.9     19.907     102.41     2.1658   0.060287    0.39558
     1158.8     20.229     102.52     2.1683   0.056937    0.37287
     1158.7     19.821     102.31     2.1754    0.05372    0.35836
     1158.6     19.044     101.54     2.1914   0.051031    0.35115
     1158.5     18.407     100.46     2.2129   0.050305    0.34516
     1158.4     18.025     99.474     2.2345    0.05354    0.33697
     1158.3     17.872     98.559     2.2504   0.061773    0.33461
     1158.2     18.128      97.89      2.255   0.073811    0.33809
     1158.1     18.888     97.783     2.2489   0.087108    0.34042
       1158     19.589      98.78     2.2379   0.096658    0.34398
     1157.9     19.731     100.98     2.2302   0.098664    0.34586
     1157.8      19.49     104.09     2.2283   0.093478    0.33844
     1157.7     19.486     107.99     2.2264   0.084151    0.32481
     1157.6     19.678     112.27     2.2277   0.071802    0.31261
     1157.5      19.38     116.61     2.2431   0.054515    0.30713
     1157.4     19.131     121.26     2.2654   0.036858    0.31255
     1157.3     19.684     126.41      2.283   0.026934    0.32492
     1157.2     20.939     131.55     2.2956   0.023278    0.33359
     1157.1     22.498      136.2      2.303   0.020079    0.33176
       1157     23.992      140.1     2.3047   0.015374    0.32145
     1156.9     25.296     142.47     2.2977    0.01066    0.31008
     1156.8     26.193     142.45     2.2794   0.008539    0.30322
     1156.7     26.416     140.29     2.2494   0.009641    0.30525
     1156.6     25.819     137.09     2.2067   0.013274    0.32073
     1156.5     24.702     133.52     2.1481   0.017589    0.34943
     1156.4     23.604     129.93     2.0879    0.02115    0.38593
     1156.3      22.73     127.04     2.0613    0.02263    0.42379
     1156.2     22.045     125.34      2.074    0.02237    0.45459
     1156.1     21.482     124.94     2.1022   0.021997    0.46949
       1156     21.079     125.87     2.1351   0.021404    0.46507
     1155.9     20.937      128.2     2.1726   0.019301    0.44529
     1155.8     21.219     131.88      2.213   0.016205    0.41977
     1155.7     22.063     136.76     2.2506   0.013733    0.39375
     1155.6     23.302     142.09     2.2806    0.01318    0.36828
     1155.5     24.523     146.99     2.3015   0.014596    0.34509
     1155.4     25.643     151.53     2.3145   0.017235    0.32752
     1155.3     26.722     155.09     2.3205   0.020302     0.3151
     1155.2     27.498     156.05     2.3141   0.023413    0.30451
     1155.1     27.502     153.91     2.2832   0.026418    0.29828
       1155     27.001     150.26     2.2296   0.029148    0.30301
     1154.9     26.548      146.7     2.1699   0.031625    0.32278
     1154.8     25.669     142.64     2.1151    0.03409    0.35542
     1154.7     24.139     138.15      2.071   0.036863    0.39137
     1154.6     22.591     134.69     2.0383   0.040317     0.4238
     1154.5      21.41     132.52     2.0149   0.044308    0.45331
     1154.4     20.647     130.95      1.999   0.046983    0.47823
     1154.3     20.258     129.38     1.9893   0.045449    0.49371
     1154.2     20.196     127.57     1.9844   0.039467     0.4989
     1154.1     20.561     125.77     1.9791   0.031542    0.49642
       1154     21.291     124.46     1.9676   0.023541    0.49049
     1153.9     21.806      123.6     1.9527   0.016439    0.48753
     1153.8     21.699      122.8      1.944   0.010951    0.49041
     1153.7     21.201     122.01      1.954   0.008246    0.49318
     1153.6     20.723     121.46     1.9882   0.009635    0.48709
     1153.5     20.592     121.25     2.0334   0.014756    0.47071
     1153.4     20.884     121.21     2.0688   0.020034    0.45253
     1153.3     21.215     121.18     2.0925   0.021553    0.44193
     1153.2     21.168     121.15     2.1169   0.018507    0.43813
     1153.1     20.732     121.16     2.1445   0.013398    0.43383
       1153     20.075     121.17     2.1671   0.010828    0.42834
     1152.9      19.42     121.15       2.18   0.014718    0.42633
     1152.8     19.093     121.13     2.1867   0.024118    0.42853
     1152.7     19.383     121.13     2.1885   0.035965    0.43138
     1152.6     20.396     121.13     2.1849   0.047806    0.43411
     1152.5     21.943     121.13     2.1797   0.058366    0.43875
     1152.4     23.441     121.09     2.1784   0.067005    0.44156
     1152.3     24.311     121.04     2.1804   0.073009    0.43768
     1152.2      24.37     121.07     2.1826   0.075718    0.43027
     1152.1     23.795     121.22     2.1937   0.075386    0.43065
       1152     23.124      121.5     2.2119   0.074535    0.44283
     1151.9     23.006     121.87     2.2131   0.076458    0.45697
     1151.8     23.414     122.29     2.1891   0.082655     0.4641
     1151.7     23.902     122.71     2.1534   0.091604    0.46714
     1151.6     24.181     123.08     2.1194    0.10077    0.47723
     1151.5     24.153      123.2     2.0911    0.10663    0.49109
     1151.4     23.826     122.99     2.0635    0.10437    0.49911
     1151.3     23.301     122.72     2.0296   0.092006    0.50015
     1151.2     22.614     122.42     1.9875   0.072898    0.49929
     1151.1     21.729      121.9      1.939    0.05646    0.50045
       1151     20.821     121.37     1.8994   0.046665    0.50369
     1150.9     20.133     120.99     1.8887   0.041501    0.50802
     1150.8     19.838     120.81      1.918   0.035584    0.51111
     1150.7      20.04     120.89     1.9695   0.026208    0.50506
     1150.6     20.684     121.22     2.0281   0.013351    0.48626
     1150.5     21.686     121.74     2.0856    0.00273    0.45651
     1150.4     22.918     122.09     2.1232   -0.00186    0.42671
     1150.3     24.082     122.11     2.1329   0.000567    0.40329
