# LAS format data
~Version Information
VERS.     2.00: CWLS LOG ASCII STANDARD - VERSION 2.0
WRAP.       NO: ONE LINE PER DEPTH STEP
~Well Information
#MNEM   .UNITS    DATA                           DESCRIPTION
#----   ------    ----                           -----------
STRT    .M        1397.9001                     :First Index Value
STOP    .M        1453.6002                     :Last Index Value
STEP    .M        0.1000                        :Frame Spacing
NULL    .         -999.2500                     :Absent Value
WELL    .         MED-05                   :Well Name   
FLD     .         WASSENAAR                     :Field Name  
CNTY    .                                       :County
STAT    .                                       :State
CTRY    .                                       :Country
LOC     .                                       :Location
API     .                                       :API Number
DATE    .                                       :Date
COMP    .         NAM                           :Company Name
SRVC    .                                       :Service Company
~Parameter Information
#MNEM   .UNITS    VALUE                          DESCRIPTION
#----   ------    -----                          -----------
TDL     .M        1406.00000                    :Total Depth (Logger)
TDD     .M        1406.00000                    :Total Depth (Driller)   
UBID    .         1605                          :Unique Borehole Id  
PDAT    .         Mean Sea Levl                 :Permanent Datum 
EPD     .M           0.00000                    :Elevation of Permanent Datum (PDAT) above Mean Sea Level
LMF     .         Rotary Table                  :Logging Measured From (Name of Logging Elevation Reference) 
APD     .M           8.77000                    :Elevation of Depth Reference (LMF) Above Permanent Datum
~Curve Information
#MNEM   .UNITS    API CODE                       CURVE DESCRIPTION
#----   ------    --------                       -----------------
DEPT    .M                                      :1     Index curve
GR      .GAPI                                   :2     SNAM  
NPHI    .V/V                                    :3     SNAM  
~Ascii Log Data
# ...
    1436.1001     58.343323      0.131164
    1436.2001     59.018684      0.132748
    1436.3001     59.261513      0.136773
    1436.4001     58.952332      0.140277
    1436.5001     58.358200      0.140895
    1436.6001     57.753403      0.138405
    1436.7001     57.692352      0.136221
    1436.8001     58.183060      0.137096
    1436.9001     59.317711      0.142144
    1437.0001     60.877602      0.149652
    1437.1001     62.529251      0.161399
    1437.2001     64.028290      0.174785
    1437.3002     65.076126      0.182146
    1437.4002     65.656448      0.185113
    1437.5002     65.597626      0.183906
    1437.6002     65.053635      0.179115
    1437.7002     64.172607      0.173900
    1437.8002     62.960991      0.171108
    1437.9002     61.608116      0.169551
    1438.0002     60.314728      0.170556
    1438.1002     59.315941      0.176125
    1438.2002     58.777412      0.186626
    1438.3002     58.842438      0.201182
    1438.4002     59.687325      0.215727
    1438.5002     60.545502      0.221926
    1438.6002     61.165031      0.216748
    1438.7002     61.294098      0.201262
    1438.8002     61.418388      0.185412
    1438.9002     61.617157      0.173307
    1439.0002     62.007286      0.168709
    1439.1002     62.445824      0.170362
    1439.2002     62.986626      0.175394
    1439.3002     63.594177      0.178778
    1439.4002     63.806053      0.182826
    1439.5002     63.465080      0.184045
    1439.6002     62.380722      0.176437
    1439.7002     60.684456      0.162570
    1439.8002     58.467262      0.143486
    1439.9002     56.397919      0.125501
    1440.0002     54.888741      0.116774
    1440.1002     54.308365      0.119683
    1440.2002     54.807869      0.126600
    1440.3002     56.020271      0.135584
    1440.4002     57.818863      0.142991
    1440.5002     59.689926      0.146302
    1440.6002     61.351120      0.149082
    1440.7002     62.439117      0.153062
    1440.8002     62.963669      0.156831
    1440.9002     63.386070      0.158727
    1441.0002     63.594017      0.156486
    1441.1002     63.204803      0.149540
    1441.2002     61.943802      0.138868
    1441.3002     59.849754      0.126582
    1441.4002     57.541542      0.115019
    1441.5002     55.657028      0.108716
    1441.6002     54.679016      0.110010
    1441.7002     54.506699      0.117650
    1441.8002     55.026001      0.130646
    1441.9002     56.033585      0.145694
    1442.0002     57.272659      0.159179
    1442.1002     58.579506      0.168755
    1442.2002     59.879021      0.174817
    1442.3002     61.166992      0.178747
    1442.4002     62.219124      0.180795
    1442.5002     63.046677      0.180627
    1442.6002     63.849503      0.178015
    1442.7002     64.591812      0.175943
    1442.8002     65.158417      0.176712
    1442.9002     65.486038      0.180389
    1443.0002     65.184402      0.186460
    1443.1002     64.261444      0.192190
    1443.2002     63.001640      0.192652
    1443.3002     61.949417      0.186980
    1443.4002     61.378906      0.179387
    1443.5002     61.239799      0.176278
    1443.6002     61.272675      0.179192
    1443.7002     61.228607      0.186023
    1443.8002     60.966713      0.195244
    1443.9002     60.671791      0.202435
    1444.0002     60.542412      0.204500
    1444.1002     60.668312      0.202699
    1444.2002     60.958878      0.202262
    1444.3002     61.263756      0.206899
    1444.4002     61.450485      0.215998
    1444.5002     61.473816      0.223271
    1444.6002     61.373009      0.223777
    1444.7002     61.122475      0.219165
    1444.8002     60.876518      0.210975
    1444.9002     60.799118      0.199635
    1445.0002     60.709122      0.192634
    1445.1002     60.559715      0.191188
    1445.2002     60.476669      0.189367
    1445.3002     60.308159      0.188121
    1445.4002     60.072441      0.188915
    1445.5002     59.991432      0.190471
    1445.6002     60.171501      0.193737
    1445.7002     60.984062      0.199214
    1445.8002     62.836212      0.204798
    1445.9002     64.929108      0.208340
    1446.0002     66.345154      0.208190
    1446.1002     67.363007      0.203236
    1446.2002     67.710632      0.192980
    1446.3002     67.173492      0.179223
    1446.4002     66.063385      0.164799
    1446.5002     64.292068      0.151324
    1446.6002     61.975662      0.139210
    1446.7002     59.513870      0.128679
    1446.8002     56.869339      0.120936
    1446.9002     54.253746      0.117127
    1447.0002     52.045547      0.114794
    1447.1002     50.307320      0.113885
    1447.2002     48.804680      0.116952
    1447.3002     47.730286      0.123130
    1447.4002     47.406548      0.131972
    1447.5002     47.802231      0.143183
    1447.6002     48.626747      0.157132
    1447.7002     49.833878      0.173650
    1447.8002     51.451965      0.191256
    1447.9002     53.581848      0.204614
    1448.0002     56.220055      0.206551
    1448.1002     58.747101      0.201547
    1448.2002     60.762489      0.191491
    1448.3002     61.425636      0.183078
    1448.4002     60.982468      0.182697
    1448.5002     59.959167      0.194027
    1448.6002     59.270187   -999.250000
    1448.7002     59.173653   -999.250000
    1448.8002     60.062279   -999.250000
    1448.9002     62.304909   -999.250000
    1449.0002     64.310806   -999.250000
    1449.1002     65.954910   -999.250000
    1449.2002     67.245636   -999.250000
    1449.3002     68.330307   -999.250000
    1449.4002     68.934006   -999.250000
    1449.5002     68.664078   -999.250000
    1449.6002     67.839325   -999.250000
    1449.7002     66.533646   -999.250000
    1449.8002     65.178406   -999.250000
    1449.9002     64.081177   -999.250000
    1450.0002     63.605263   -999.250000
    1450.1002     63.948990   -999.250000
    1450.2002     64.534637   -999.250000
    1450.3002     65.035522   -999.250000
    1450.4002     65.112946   -999.250000
    1450.5002     64.895889   -999.250000
    1450.6002     64.471558   -999.250000
    1450.7002     64.172729   -999.250000
    1450.8002     64.336548   -999.250000
    1450.9002     65.371857   -999.250000
    1451.0002     67.106781   -999.250000
    1451.1002     68.888382   -999.250000
    1451.2002     70.251007   -999.250000
    1451.3002     71.429947   -999.250000
    1451.4002     72.114868   -999.250000
    1451.5002     72.021606   -999.250000
    1451.6002     71.454422   -999.250000
    1451.7002     70.533386   -999.250000
    1451.8002     69.373077   -999.250000
    1451.9002     68.005035   -999.250000
    1452.0002     66.864792   -999.250000
    1452.1002     66.063370   -999.250000
    1452.2002     65.083588   -999.250000
    1452.3002     64.029175   -999.250000
    1452.4002     63.136215   -999.250000
    1452.5002     62.495117   -999.250000
    1452.6002     62.527206   -999.250000
    1452.7002     63.172409   -999.250000
    1452.8002     63.893768   -999.250000
    1452.9002     64.244583   -999.250000
    1453.0002     64.027817   -999.250000
    1453.1002     63.179726   -999.250000
    1453.2002     61.930618   -999.250000
    1453.3002     60.863052   -999.250000
    1453.4002     60.805244   -999.250000
    1453.5002     62.256035   -999.250000
    1453.6002     64.763916   -999.250000
