~Version ---------------------------------------------------
VERS.     2.0 : CWLS log ASCII Standard -VERSION 2.0
WRAP.      NO : ONE LINE PER DEPTH STEP
~Well ------------------------------------------------------
STRT.M                       1890.7 : First Index Value
STOP.M                    1974.8001 : Last Index Value
STEP.M          0.09999999999990905 : Frame Spacing
NULL.                       -999.25 : Absent Value
WELL.                        GRW-01 : Well Name
FLD .     LEEUWARDEN 101 ROTLIEGEND : Field Name
CNTY.                               : County
STAT.                               : State
CTRY.                               : Country
LOC .                               : Location
API .                               : API Number
DATE.                               : Date
COMP.                           PET : Company Name
SRVC.                               : Service Company
~Curves ----------------------------------------------------
DEPT.M         : 
GR  .GAPI      : 
DT  .US/F      : 
RHOB.G/C3      : 
DRHO.G/C3      : 
NPHI.V/V       : 
~Params ----------------------------------------------------
TDD .M            1980.0 : Total Depth (Driller)
UBID.               1348 : Unique Borehole Id
PDAT.     Mean Sea Level : Permanent Datum
EPD .M               0.0 : Elevation of Permanent Datum (PDAT) above Mean Sea Level
LMF .                    : Logging Measured From (Name of Logging Elevation Reference)
APD .M               5.0 : Elevation of Depth Reference (LMF) Above Permanent Datum
~Other -----------------------------------------------------
~ASCII -----------------------------------------------------
     1890.7     106.44     100.39     2.1904   0.061166    0.35616
     1890.8     105.85     100.54     2.1608   0.054369    0.36012
     1890.9     104.37     100.96     2.1348   0.046288    0.36416
       1891     102.09     101.69     2.1087   0.032404    0.36905
     1891.1     99.233     102.39     2.0807    0.01726    0.37312
     1891.2     96.842     102.88     2.0501   0.004873     0.3779
     1891.3     95.784     103.21     2.0218  -0.005634    0.38372
     1891.4     96.147     103.44      2.004  -0.011821    0.38806
     1891.5      97.38     103.57     2.0014  -0.010905    0.38949
     1891.6     98.823      103.8     2.0096  -0.005443    0.38927
     1891.7     99.728     104.23     2.0242   0.002004    0.38883
     1891.8     99.861     104.92     2.0411   0.008945    0.39124
     1891.9     99.491     105.78     2.0535   0.011063    0.39708
       1892     99.119     106.69     2.0565   0.008235    0.40304
     1892.1     99.246     107.77     2.0541   0.004049     0.4051
     1892.2     99.974     108.75     2.0529   -6.1e-05    0.39625
     1892.3     101.41     109.29     2.0596  -0.002292    0.38048
     1892.4     103.11     109.47      2.078  -0.000443    0.36666
     1892.5     104.54     109.43     2.1009   0.009024    0.35328
     1892.6     105.54     109.26     2.1226   0.027922     0.3403
     1892.7     105.86     108.99     2.1393   0.045306     0.3327
     1892.8     105.19     108.63     2.1448    0.05118    0.32823
     1892.9      103.7     108.08     2.1378   0.048739    0.32314
       1893     101.11     107.41     2.1201   0.045768    0.31771
     1893.1     97.897     106.92      2.099   0.046244    0.31353
     1893.2     95.725      106.8     2.0813   0.049412    0.31292
     1893.3     95.099     106.94     2.0731   0.058705    0.31683
     1893.4     95.573      107.1     2.0801   0.077465    0.32553
     1893.5     96.541     107.15     2.1038   0.097518    0.33538
     1893.6      97.51     106.98     2.1387    0.11487    0.34241
     1893.7     98.041      106.5      2.179    0.13167    0.34618
     1893.8     98.239     105.76     2.2199    0.14615    0.34657
     1893.9     98.644     105.02     2.2496    0.15286    0.34361
       1894     99.623     104.39      2.263    0.14681     0.3385
     1894.1        101     103.79     2.2636     0.1321    0.33399
     1894.2     102.22     103.24     2.2536     0.1128    0.33294
     1894.3     102.96     102.94     2.2329   0.089353    0.33452
     1894.4     103.08     102.96     2.2057   0.064838    0.33601
     1894.5     103.25     103.13     2.1797   0.044169    0.33714
     1894.6     103.96     103.39     2.1542   0.029866    0.33793
     1894.7     104.96     103.89     2.1308   0.021521    0.33806
     1894.8     107.08     104.64     2.1133   0.015747    0.33728
     1894.9     109.45     105.45     2.1025   0.013351    0.33553
       1895     109.87     106.35     2.0963   0.013032    0.33363
     1895.1     109.12     107.21      2.092   0.013203     0.3314
     1895.2      107.3     107.58     2.0881   0.014054    0.33004
     1895.3     105.08     107.29     2.0848   0.015772    0.32923
     1895.4     102.06      106.5     2.0807   0.017408    0.32952
     1895.5     98.981     105.52     2.0745   0.016575    0.33103
     1895.6     96.813     104.44     2.0635   0.010766    0.33458
     1895.7     95.583     103.23     2.0415    0.00411    0.34069
     1895.8     95.124     102.33     2.0129   -0.00402    0.34819
     1895.9     95.065     102.23      1.987   -0.01501    0.35882
       1896      94.86      102.6     1.9618  -0.025823    0.36954
     1896.1     94.278     103.02      1.935  -0.033588     0.3787
     1896.2     93.447     103.57     1.9314  -0.034699    0.38644
     1896.3     92.836     103.89     1.9391  -0.032847    0.39577
     1896.4     93.058     103.86      1.953  -0.026775    0.40769
     1896.5     93.829     103.67      2.013   -0.01745    0.41641
     1896.6      95.19     103.46     2.0521  -0.009222    0.41903
     1896.7     96.797      103.3     2.0727  -0.005839    0.42093
     1896.8     98.051     103.34     2.0875  -0.001738    0.42224
     1896.9     98.264     103.52     2.0997   0.002901    0.42911
       1897     97.623     103.66     2.1079    0.00883    0.44066
     1897.1     97.227     103.95     2.1124   0.017682    0.44878
     1897.2     97.046     104.22     2.1099   0.020889    0.44969
     1897.3     97.331      104.3     2.0971   0.020172    0.44343
     1897.4     97.444      104.3     2.0711   0.014373    0.40648
     1897.5     96.872      104.3     2.0342   0.006231    0.38206
     1897.6     96.042      104.3     2.0064  -0.001034    0.36631
     1897.7     94.937     104.34     1.9686  -0.004434     0.3575
     1897.8     94.079     104.54     1.9574  -0.006938    0.36009
     1897.9     93.163     104.76     1.9589  -0.006489    0.37178
       1898     92.329     105.03     1.9767  -0.003585    0.38456
     1898.1     92.618     105.07     2.0012   0.000422    0.39354
     1898.2     92.645     104.87     2.0272  -0.001454    0.40299
     1898.3     92.695      104.6     2.0449  -0.007769    0.40452
     1898.4     92.856     104.05      2.052   -0.01081    0.39757
     1898.5     93.521     103.72     2.0531  -0.010968    0.38528
     1898.6     94.419     103.26     2.0654  -0.011038    0.37776
     1898.7     95.568     103.12     2.0795   -0.01003    0.37617
     1898.8     96.363     103.32     2.1043  -0.004902    0.37742
     1898.9     96.802     103.56     2.1352  -0.000992    0.37951
       1899     96.383     103.97     2.1665   0.003287    0.38335
     1899.1     95.933     104.59     2.1861   0.004851    0.38217
     1899.2     95.404     105.12     2.1936   0.004957    0.37981
     1899.3     94.993     105.29     2.1896   0.004987    0.37355
     1899.4     94.823     105.26     2.1789   0.005005    0.36354
     1899.5     94.866     105.11     2.1671   0.005028    0.35588
     1899.6     95.078     105.15      2.156   0.005094      0.352
     1899.7      95.49     105.34      2.145   0.005404    0.34751
     1899.8     96.366     105.58     2.1388      0.007    0.34833
     1899.9     97.631     105.95     2.1329   0.011151    0.35171
       1900     99.921     106.28     2.1283   0.016698    0.35438
     1900.1     102.23     106.52     2.1273   0.023383    0.35903
     1900.2     103.88     106.53     2.1262   0.031314     0.3666
     1900.3     104.93     106.56     2.1214   0.037376    0.37145
     1900.4     105.47     106.54     2.1105   0.034555    0.37456
     1900.5     105.18     106.41     2.0938   0.026027     0.3702
     1900.6     104.65     106.05     2.0736   0.017046     0.3617
     1900.7     103.89     105.69     2.0571   0.007775    0.36331
     1900.8     102.88     105.46     2.0497   0.003317     0.3688
     1900.9      102.1      105.4     2.0497   0.004133    0.37416
       1901     101.13     105.63     2.0597   0.007454    0.37948
     1901.1      99.98      106.1     2.0768   0.011575    0.38328
     1901.2     99.005     106.78     2.0921    0.01632    0.38296
     1901.3      98.63      107.6     2.1117    0.02164    0.38036
     1901.4     98.951     108.53     2.1326   0.025905    0.37643
     1901.5     99.504     109.08     2.1458   0.028699    0.37361
     1901.6     99.788     109.34     2.1574   0.033996     0.3747
     1901.7     99.299      109.4     2.1725   0.043061    0.37906
     1901.8     98.005     109.26     2.1898   0.053747    0.38459
     1901.9     96.408     108.99     2.2071   0.065013    0.39065
       1902     94.743     108.74     2.2235   0.076669    0.39624
     1902.1     93.524     108.33     2.2382   0.083415    0.40107
     1902.2     93.531      107.7      2.247   0.082366    0.40571
     1902.3     94.615     107.22     2.2477   0.078478    0.41031
     1902.4     96.388     106.96     2.2405   0.075349    0.41734
     1902.5     98.678      106.9     2.2277   0.073648    0.42563
     1902.6     101.31     106.89      2.208   0.072394    0.43079
