~Version ---------------------------------------------------
VERS.     2.0 : CWLS log ASCII Standard -VERSION 2.0
WRAP.      NO : ONE LINE PER DEPTH STEP
~Well ------------------------------------------------------
STRT.M                1195.8001 : First Index Value
STOP.M                   1150.3 : Last Index Value
STEP.M     -0.09999999999990905 : Frame Spacing
NULL.                   -999.25 : Absent Value
WELL.                    D15-01 : Well Name
FLD .                   UNKNOWN : Field Name
CNTY.                           : County
STAT.                           : State
CTRY.                           : Country
LOC .                           : Location
API .                           : API Number
DATE.                           : Date
COMP.                       PHL : Company Name
SRVC.                           : Service Company
~Curves ----------------------------------------------------
DEPT.M         : 
GR  .GAPI      : 
DT  .US/F      : 
RHOB.G/C3      : 
DRHO.G/C3      : 
NPHI.V/V       : 
~Params ----------------------------------------------------
TDL .M            1451.0 : Total Depth (Logger)
TDD .M            1451.0 : Total Depth (Driller)
UBID.               7019 : Unique Borehole Id
PDAT.     Mean Sea Level : Permanent Datum
EPD .M               0.0 : Elevation of Permanent Datum (PDAT) above Mean Sea Level
LMF .       Rotary Table : Logging Measured From (Name of Logging Elevation Reference)
APD .M              27.4 : Elevation of Depth Reference (LMF) Above Permanent Datum
~Other -----------------------------------------------------
~ASCII -----------------------------------------------------
     1195.8     32.796     120.42     2.0353   0.069325    0.47282
     1195.7     32.248     119.33     2.0377   0.068582    0.46545
     1195.6     32.114     118.64     2.0424   0.068422    0.45633
     1195.5     33.216      118.2     2.0511    0.06866    0.45014
     1195.4     34.101     117.81     2.0628   0.069166    0.44854
     1195.3      34.02     117.35     2.0633   0.069661    0.44937
     1195.2     33.498      116.8     2.0381   0.069082    0.45098
     1195.1     32.626     116.17     1.9926   0.066083    0.45827
       1195     31.766     115.59     1.9488    0.06083    0.47458
     1194.9     31.148     115.44     1.9209    0.05442     0.4906
     1194.8     30.863     115.67     1.9215   0.048483    0.49478
     1194.7     30.987     116.16     1.9573   0.044792    0.48519
     1194.6     31.489     117.78     2.0115   0.042926    0.46761
     1194.5     32.269     120.02     2.0628   0.041489    0.45122
     1194.4     33.175     121.05     2.1059   0.040819    0.44239
     1194.3         34     121.53     2.1452   0.042027    0.43813
     1194.2     34.655     122.48     2.1782   0.045899    0.43508
     1194.1     35.319     124.18     2.1981   0.052457    0.43312
       1194     36.172     126.51      2.206   0.059468    0.42847
     1193.9     37.334     128.65     2.2043   0.063371    0.42251
     1193.8     38.955     129.61     2.1895   0.063986    0.42425
     1193.7     40.781     129.65      2.163   0.062648    0.43231
     1193.6       42.1     129.33     2.1333   0.060125    0.43936
     1193.5     42.094     128.25     2.1086    0.05689    0.44296
     1193.4     40.935     125.98     2.0906   0.053328    0.44697
     1193.3     39.115      122.9     2.0794   0.049317    0.45304
     1193.2     36.771     120.47     2.0777   0.044606    0.45686
     1193.1     34.278     118.96     2.0779   0.039636    0.46147
       1193     31.895     117.88     2.0752    0.03588    0.47135
     1192.9     29.818     117.38     2.0813   0.034678    0.48135
     1192.8     28.219     117.61     2.0996   0.036388    0.48279
     1192.7     27.212      118.6     2.1251   0.039739    0.47068
     1192.6     27.054     120.19     2.1488   0.042051    0.44869
     1192.5     27.449      122.3     2.1709   0.041452    0.42272
     1192.4     27.985     124.94     2.1957   0.038612    0.39739
     1192.3     28.402     127.17     2.2167   0.035224    0.38721
     1192.2     28.663     128.67     2.2304   0.032452    0.38793
     1192.1     28.767     129.59     2.2333   0.031282    0.38587
       1192     28.703     130.59     2.2157   0.030784     0.3818
     1191.9      28.49     131.67     2.1859   0.029839    0.38109
     1191.8     28.241     132.26     2.1635   0.031588    0.38729
     1191.7     28.586     132.67     2.1587   0.036954    0.39513
     1191.6     29.653     133.29     2.1658   0.044619    0.40573
     1191.5     31.104     134.08     2.1743   0.046185    0.42847
     1191.4     32.705     134.59     2.1712   0.040428     0.4507
     1191.3     34.332     134.09     2.1547   0.032764    0.45938
     1191.2     35.769     130.99     2.1333    0.02642    0.44858
     1191.1     36.197      127.4     2.1221   0.021537    0.44148
       1191     35.429     125.06     2.1288   0.018921    0.45232
     1190.9     34.377     122.45     2.1561   0.019296      0.468
     1190.8     33.399     120.24     2.1851   0.021757    0.46939
     1190.7     32.416     119.69     2.1988   0.023101    0.45255
     1190.6     31.546      121.4     2.1849   0.022202    0.43356
     1190.5     30.787     124.34     2.1507   0.019738    0.41963
     1190.4     30.167     127.14     2.1132   0.016497    0.40992
     1190.3      30.09     129.87     2.0814   0.013694    0.41339
     1190.2     30.723     131.97     2.0578   0.012045    0.43109
     1190.1     31.804     132.59       2.04   0.011654    0.45572
       1190     32.899     131.37     2.0212   0.013033    0.48112
     1189.9     33.631     128.75     2.0073     0.0169     0.4975
     1189.8     33.859     125.67     2.0121   0.023682    0.49992
     1189.7      33.46     122.88     2.0423   0.032671    0.50062
     1189.6     32.519     120.87     2.0837   0.041047    0.50577
     1189.5     31.332     119.66      2.116   0.042308    0.50648
     1189.4     30.372     119.53     2.1435   0.036259    0.49325
     1189.3     30.074     120.35     2.1714   0.030111    0.46694
     1189.2     30.135     121.53     2.1935   0.025617    0.43844
     1189.1     29.396     122.36     2.1975   0.022658    0.41591
       1189     27.677     122.38     2.1805   0.021482    0.40789
     1188.9     26.405     121.77     2.1576   0.022972    0.41781
     1188.8     25.954     120.73     2.1461   0.027725    0.43845
     1188.7     25.865     119.51     2.1515   0.035915    0.45681
     1188.6     25.805     118.32       2.16   0.047479    0.46766
     1188.5     25.861     117.63     2.1652   0.060749    0.46864
     1188.4     26.366     118.08     2.1743   0.073522    0.46386
     1188.3     27.496     119.94     2.1966    0.08295    0.45835
     1188.2       28.9     122.37     2.2224   0.087121    0.44752
     1188.1     30.054     124.25     2.2344   0.087141      0.426
       1188     30.882     125.73     2.2334   0.083239    0.40281
     1187.9     31.328     126.87     2.2286   0.075737    0.38997
     1187.8      31.41     127.31     2.2305    0.06651    0.39042
     1187.7     31.302     126.77     2.2384   0.058769    0.39739
     1187.6     31.175     125.38     2.2388   0.054559    0.40374
     1187.5     31.169      123.9      2.219   0.052717    0.40689
     1187.4     31.433     123.06     2.1881   0.050972     0.4084
     1187.3     31.964     122.94      2.167   0.047815    0.41409
     1187.2     32.578     123.17     2.1674   0.044018    0.42618
     1187.1     33.063     123.88     2.1819   0.041267    0.43491
       1187     33.179     125.22     2.2007   0.039174     0.4301
     1186.9     32.749     126.79     2.2206   0.035009    0.41292
     1186.8     31.874     127.85     2.2356   0.028434    0.39277
     1186.7     31.021     128.06     2.2394   0.022695    0.37802
     1186.6     30.725     127.57     2.2326   0.020578    0.37328
     1186.5     31.071     126.39     2.2241   0.022869    0.38164
     1186.4     31.713     124.64     2.2213   0.027972    0.39635
     1186.3     32.063     122.86     2.2203   0.032163    0.40476
     1186.2      31.58      121.5       2.21   0.032603    0.40591
     1186.1     30.283     120.76     2.1921   0.029606    0.40417
       1186     28.741     120.52     2.1824   0.025486    0.39921
     1185.9      27.48     120.63     2.1889   0.022604    0.39031
     1185.8     26.665     120.86     2.2038    0.02123    0.38048
     1185.7     26.191     120.86     2.2155   0.020285     0.3744
     1185.6     26.069     120.32     2.2209   0.022271    0.37431
     1185.5      26.36     119.28     2.2293   0.031845    0.37686
     1185.4      27.12     118.04     2.2472     0.0488     0.3765
     1185.3     28.321     116.93     2.2635   0.067314    0.37225
     1185.2     29.514     116.18     2.2688   0.078479    0.36675
     1185.1     30.117     116.19     2.2698   0.073838    0.36319
       1185     30.233     117.44      2.273   0.056129    0.36431
     1184.9      30.34     119.51     2.2801   0.036891    0.36776
     1184.8     30.468     121.26     2.2901   0.022469    0.36753
     1184.7     30.314     122.57     2.2973   0.012688    0.36351
     1184.6     29.757     123.86     2.2986   0.006316    0.36018
     1184.5     28.983      124.7     2.2985   0.002585    0.35954
     1184.4     28.176     124.63     2.2983   0.000791    0.36036
     1184.3     27.344     123.26     2.2838   0.000426    0.36034
     1184.2     26.511     120.46     2.2425   0.001173    0.36046
     1184.1     25.722     117.52     2.1967   0.003488    0.36784
       1184     25.103     115.09     2.1732   0.008985    0.38205
     1183.9     24.836      112.1     2.1696   0.018749    0.39054
