~Version ---------------------------------------------------
VERS.     2.0 : CWLS log ASCII Standard -VERSION 2.0
WRAP.      NO : ONE LINE PER DEPTH STEP
~Well ------------------------------------------------------
STRT.M                       1890.7 : First Index Value
STOP.M                    1974.8001 : Last Index Value
STEP.M          0.09999999999990905 : Frame Spacing
NULL.                       -999.25 : Absent Value
WELL.                        GRW-01 : Well Name
FLD .     LEEUWARDEN 101 ROTLIEGEND : Field Name
CNTY.                               : County
STAT.                               : State
CTRY.                               : Country
LOC .                               : Location
API .                               : API Number
DATE.                               : Date
COMP.                           PET : Company Name
SRVC.                               : Service Company
~Curves ----------------------------------------------------
DEPT.M         : 
GR  .GAPI      : 
DT  .US/F      : 
RHOB.G/C3      : 
DRHO.G/C3      : 
NPHI.V/V       : 
~Params ----------------------------------------------------
TDD .M            1980.0 : Total Depth (Driller)
UBID.               1348 : Unique Borehole Id
PDAT.     Mean Sea Level : Permanent Datum
EPD .M               0.0 : Elevation of Permanent Datum (PDAT) above Mean Sea Level
LMF .                    : Logging Measured From (Name of Logging Elevation Reference)
APD .M               5.0 : Elevation of Depth Reference (LMF) Above Permanent Datum
~Other -----------------------------------------------------
~ASCII -----------------------------------------------------
# ...
     1950.7      14.93     50.604     2.8504  -0.081842     0.0117
     1950.8     15.464     51.096     2.8388  -0.087944     0.0117
     1950.9     15.938     50.998     2.8311  -0.094025   0.011701
       1951     16.551     50.498     2.8245  -0.099011   0.011724
     1951.1     16.775      50.58     2.8191   -0.10366     0.0121
     1951.2     17.667     51.091      2.812   -0.10801   0.013805
     1951.3     18.913     50.986      2.801   -0.11057   0.015067
     1951.4     20.964     50.492     2.7928   -0.11237   0.016007
     1951.5     22.824       50.5     2.7911   -0.11301   0.016542
     1951.6     24.263       50.5     2.7991   -0.10821   0.017318
     1951.7     26.802     50.461     2.8139  -0.098143   0.017975
     1951.8      28.58     50.304     2.8345  -0.087585     0.0183
     1951.9     28.588     50.331     2.8528   -0.07896   0.018295
       1952      28.54     50.409     2.8629  -0.076409   0.018301
     1952.1     28.342     50.306     2.8637  -0.078046     0.0183
     1952.2     28.023       50.3     2.8563  -0.083515     0.0183
     1952.3     27.728       50.3     2.8427  -0.090977   0.018284
     1952.4     26.804       50.3     2.8242  -0.098549   0.017964
     1952.5      26.22       50.3     2.8103   -0.10565   0.017182
     1952.6     25.563       50.3     2.8051   -0.10912   0.017096
     1952.7       24.8       50.3     2.8077   -0.10465   0.016998
     1952.8     23.931     50.247     2.8203  -0.097686   0.016553
     1952.9     23.443     50.214     2.8379  -0.090494   0.015974
       1953     23.411     50.379     2.8539  -0.083367     0.0159
     1953.1     23.403     50.318     2.8633  -0.078593     0.0159
     1953.2     23.554     50.301     2.8637  -0.079312   0.015919
     1953.3     24.201       50.3     2.8548  -0.081234   0.016307
     1953.4     25.351       50.3      2.841  -0.082554   0.017387
     1953.5     27.181       50.3     2.8264  -0.082465   0.018609
     1953.6     29.625       50.3     2.8159  -0.082057   0.020276
     1953.7     32.438       50.3     2.8105  -0.081753   0.023847
     1953.8     34.568       50.3     2.8092  -0.082845   0.028128
     1953.9     35.439       50.3     2.8076  -0.086715   0.030835
       1954      36.26       50.3     2.8032  -0.092527   0.033695
     1954.1     37.575     50.364     2.7962  -0.097427   0.035757
     1954.2     39.036     50.471     2.7893  -0.099534   0.035921
     1954.3     40.384     50.694     2.7881    -0.1009   0.033802
     1954.4     41.146     51.076     2.7958  -0.097456   0.030596
     1954.5      41.24      51.27     2.8123   -0.08741    0.02723
     1954.6     40.893     51.036     2.8324  -0.077349   0.024091
     1954.7      39.79     50.627     2.8472  -0.072052   0.021213
     1954.8     37.389     50.433     2.8524  -0.072264    0.01934
     1954.9     33.916     50.263     2.8505  -0.075596   0.018855
       1955     30.617     50.121     2.8444   -0.07962   0.018011
     1955.1     28.525      50.07     2.8373  -0.083123    0.01686
     1955.2     27.967      50.05     2.8326  -0.086311     0.0165
     1955.3     28.376     50.029     2.8308  -0.088936     0.0165
     1955.4     28.982     50.009     2.8296  -0.090767    0.01649
     1955.5     29.834     49.988     2.8267  -0.092292   0.016285
     1955.6     30.452     49.968     2.8214  -0.093659   0.015547
     1955.7     30.263     49.948     2.8144   -0.09542   0.014332
     1955.8     29.658     49.927     2.8078   -0.09819   0.012985
     1955.9     29.013     49.909     2.8023   -0.10136   0.011862
       1956     28.184     49.894     2.7976   -0.10397   0.011678
     1956.1     27.218      49.95     2.7936   -0.10597   0.012122
     1956.2     26.541     50.039     2.7916   -0.10749   0.012306
     1956.3     26.248     50.007     2.7927   -0.10648   0.012303
     1956.4     26.271     49.921     2.7976   -0.10236   0.012295
     1956.5     26.601     49.898     2.8056  -0.097362   0.012336
     1956.6      27.14       49.9     2.8166  -0.093971   0.012987
     1956.7     27.451       49.9     2.8267  -0.093037   0.013875
     1956.8     27.314       49.9     2.8294  -0.093012   0.014764
     1956.9     27.111       49.9     2.8231  -0.093653   0.015854
       1957     27.444       49.9     2.8127  -0.095488   0.016414
     1957.1     28.255     49.834     2.8046  -0.097976   0.016499
     1957.2     29.375      49.73     2.8031  -0.098749    0.01646
     1957.3     31.128       49.7     2.8087  -0.095849   0.016073
     1957.4     33.496       49.7     2.8181  -0.090712   0.015449
     1957.5     35.872       49.7     2.8272  -0.085688   0.014871
     1957.6     37.226     49.699     2.8353  -0.082143   0.014264
     1957.7     37.532     49.692     2.8416  -0.080021   0.014094
     1957.8     37.158     49.678     2.8433  -0.078462   0.014097
     1957.9     35.998     49.791     2.8412  -0.079131   0.014074
       1958     34.023     50.029     2.8364  -0.083176   0.013597
     1958.1     32.136     50.096     2.8293  -0.087765   0.012683
     1958.2     30.215       50.1     2.8224  -0.091554   0.012538
     1958.3     28.341       50.1     2.8199  -0.093408   0.012875
     1958.4     27.191       50.1     2.8224  -0.094228   0.013457
     1958.5      27.23       50.1     2.8276  -0.094774    0.01455
     1958.6     28.104     50.099     2.8319  -0.094975    0.01509
     1958.7     29.343     50.093     2.8332  -0.094998   0.016183
     1958.8     30.164     50.027     2.8324  -0.094999   0.017376
     1958.9     30.458      49.94     2.8326     -0.095   0.018604
       1959     29.995     50.058      2.833  -0.095006   0.019755
     1959.1       29.3     50.087     2.8315  -0.095089   0.020622
     1959.2     29.012     50.098     2.8264     -0.096   0.020709
     1959.3     29.247       50.1     2.8159  -0.098827   0.020693
     1959.4     29.505       50.1     2.8029   -0.10169   0.020528
     1959.5     29.722       50.1      2.792   -0.10452    0.01997
     1959.6     30.064       50.1      2.786    -0.1068   0.019507
     1959.7     30.102     50.143     2.7877   -0.10601   0.019161
     1959.8     29.824     50.295      2.798   -0.10159   0.017743
     1959.9     27.889     50.336     2.8162  -0.095009   0.015937
       1960     24.303     50.463      2.836  -0.088026   0.015935
     1960.1     22.113     50.368     2.8469  -0.081138   0.016304
     1960.2     22.023       50.3     2.8452  -0.077248   0.017855
     1960.3     22.622       50.3     2.8298  -0.077467    0.02121
     1960.4     23.427       50.3     2.8027  -0.081118   0.027984
     1960.5     27.071       50.3     2.7722  -0.091056   0.038794
     1960.6     30.016     50.301     2.7404  -0.093397   0.055453
     1960.7     32.482     50.347     2.7196  -0.094818   0.066694
     1960.8      35.93     50.669     2.7079  -0.097101   0.075942
     1960.9     37.671     51.326        2.7   -0.10085     0.0845
       1961     39.487     51.433     2.6948   -0.10469   0.085776
     1961.1     41.861     52.146     2.6897   -0.10915   0.086132
     1961.2     44.635     52.528     2.6833   -0.11403   0.084086
     1961.3     45.779     52.556     2.6747   -0.11817   0.082539
     1961.4       45.6     51.865     2.6685   -0.11877   0.080384
     1961.5     44.647     51.665     2.6705   -0.11378   0.078486
     1961.6     43.234     51.499     2.6845    -0.1071   0.072762
     1961.7     42.614     51.465      2.708  -0.094605   0.060045
     1961.8      42.94      51.26       2.74  -0.087337   0.047561
     1961.9     43.219     50.976     2.7752  -0.081243   0.036262
       1962     41.544     50.447     2.8073  -0.080077   0.023927
     1962.1     39.945     50.332     2.8278   -0.08404   0.018461
     1962.2     38.199     50.257      2.836  -0.088335   0.016077
     1962.3     34.016     50.064     2.8333  -0.092803   0.014876
     1962.4     29.956     49.863     2.8248  -0.098529   0.013534
     1962.5     25.733     49.708     2.8133   -0.10453     0.0135
     1962.6      22.22     49.698     2.8024   -0.10822   0.013485
