~Version ---------------------------------------------------
VERS.     2.0 : CWLS log ASCII Standard -VERSION 2.0
WRAP.      NO : ONE LINE PER DEPTH STEP
~Well ------------------------------------------------------
STRT.M                1195.8001 : First Index Value
STOP.M                   1150.3 : Last Index Value
STEP.M     -0.09999999999990905 : Frame Spacing
NULL.                   -999.25 : Absent Value
WELL.                    D15-01 : Well Name
FLD .                   UNKNOWN : Field Name
CNTY.                           : County
STAT.                           : State
CTRY.                           : Country
LOC .                           : Location
API .                           : API Number
DATE.                           : Date
COMP.                       PHL : Company Name
SRVC.                           : Service Company
~Curves ----------------------------------------------------
DEPT.M         : 
GR  .GAPI      : 
DT  .US/F      : 
RHOB.G/C3      : 
DRHO.G/C3      : 
NPHI.V/V       : 
~Params ----------------------------------------------------
TDL .M            1451.0 : Total Depth (Logger)
TDD .M            1451.0 : Total Depth (Driller)
UBID.               7019 : Unique Borehole Id
PDAT.     Mean Sea Level : Permanent Datum
EPD .M               0.0 : Elevation of Permanent Datum (PDAT) above Mean Sea Level
LMF .       Rotary Table : Logging Measured From (Name of Logging Elevation Reference)
APD .M              27.4 : Elevation of Depth Reference (LMF) Above Permanent Datum
~Other -----------------------------------------------------
~ASCII -----------------------------------------------------
# ...
     1183.8     24.886     109.08     2.1782   0.028915    0.39155
     1183.7     25.113     107.47     2.2014   0.031991    0.38889
     1183.6     25.349     107.07     2.2399   0.031636    0.38011
     1183.5     25.343     107.08     2.2813   0.035133    0.36693
     1183.4     25.023     107.23     2.3092   0.042015    0.35529
     1183.3     24.679     107.69     2.3208   0.048039    0.34707
     1183.2     24.498     108.55     2.3266   0.048582    0.33923
     1183.1     24.384     109.75     2.3341   0.040607    0.32949
       1183     24.092     111.05     2.3401   0.028268    0.31935
     1182.9     23.615     112.26     2.3469   0.017691     0.3094
     1182.8      23.22     113.28     2.3571   0.010894    0.30022
     1182.7     23.287     114.13     2.3617   0.006682    0.29541
     1182.6     23.819     114.74     2.3602   0.004286    0.29425
     1182.5     24.554     115.05     2.3588   0.003418    0.29298
     1182.4     25.316     115.37     2.3579   0.003474      0.292
     1182.3      25.98     115.74     2.3583   0.003947    0.29622
     1182.2     26.386      116.1     2.3603   0.004594    0.31007
     1182.1     26.163     116.53     2.3531   0.005307    0.32237
       1182     25.434     117.07     2.3364   0.006022    0.32694
     1181.9      24.66     117.76     2.3197   0.006848    0.32753
     1181.8     24.208     119.02     2.3073   0.008571    0.32797
     1181.7     24.144     120.68     2.2927   0.012727    0.32886
     1181.6     24.446     121.88     2.2612   0.019337    0.33032
     1181.5     25.057     122.43     2.2159   0.026896    0.33946
     1181.4     25.939     122.49     2.1678   0.033216    0.35859
     1181.3     27.075     121.86     2.1366   0.035041    0.38083
     1181.2     28.203     119.91     2.1352   0.036676    0.40462
     1181.1     29.096     116.53       2.16   0.057343    0.42826
       1181     29.299     112.81     2.1927   0.076649    0.43091
     1180.9     28.873     109.05     2.2166   0.075861    0.42008
     1180.8     28.054      104.9     2.2299   0.056713    0.40971
     1180.7     26.865     101.42     2.2422    0.03722    0.40123
     1180.6     25.401     98.892     2.2583    0.02769    0.38967
     1180.5     23.774     96.995     2.2775   0.021145    0.37111
     1180.4     22.531     95.716     2.2964   0.014711    0.34842
     1180.3     21.944     94.948     2.3151   0.009897    0.32305
     1180.2     22.024     94.708     2.3341   0.007634    0.29507
     1180.1     22.337     95.264     2.3431   0.007485    0.27347
       1180     22.626     96.473      2.347    0.00886    0.26242
     1179.9     22.917     98.129     2.3578   0.011087    0.26101
     1179.8     22.858     100.15     2.3668   0.012754    0.26307
     1179.7      22.67     102.34     2.3688   0.012875    0.26304
     1179.6     22.956     104.37     2.3676    0.01152    0.26037
     1179.5     23.614      106.1     2.3703   0.009399    0.25787
     1179.4     24.301     107.53     2.3777    0.00697    0.25712
     1179.3     24.888     108.47     2.3822   0.004872    0.25679
     1179.2     25.452     108.94     2.3783   0.003821    0.25752
     1179.1     26.051     109.15     2.3675   0.004682    0.25928
       1179     26.604     109.33      2.358   0.007627    0.26153
     1178.9     27.031     110.02     2.3538   0.011904    0.27077
     1178.8       27.2     111.51     2.3528   0.016755    0.28816
     1178.7     26.953     113.71     2.3502   0.020967    0.30142
     1178.6     26.473     116.66     2.3505   0.023263     0.3023
     1178.5     26.065     119.98      2.358   0.022801    0.29373
     1178.4     25.639     122.94     2.3664   0.020229    0.28467
     1178.3     25.227     124.78     2.3703   0.017182    0.28011
     1178.2      25.16     125.27     2.3625   0.014312    0.28051
     1178.1      25.71     124.59     2.3305   0.011933    0.28714
       1178     26.567      122.8     2.2792   0.010464    0.29875
     1177.9     27.083     120.01     2.2334   0.011251    0.31329
     1177.8     27.239     116.38     2.2068   0.016141    0.33386
     1177.7     27.031     112.45     2.2035   0.025041    0.35622
     1177.6     26.383     108.85     2.2163   0.034534    0.37076
     1177.5     25.459     106.24     2.2357   0.039883    0.37684
     1177.4     24.395      104.9     2.2534   0.038597    0.37407
     1177.3     23.139      104.3     2.2662   0.032414    0.36213
     1177.2      21.78     104.17     2.2755   0.024136    0.34751
     1177.1     20.607     104.39     2.2851   0.015873    0.33811
       1177     19.841     104.89     2.2973   0.008912    0.33363
     1176.9     19.598     105.58     2.3079   0.004171    0.32915
     1176.8     19.813     106.35     2.3124   0.001763    0.32041
     1176.7     20.254     107.07     2.3133   0.000884     0.3094
     1176.6     20.765     107.72     2.3148   0.000344    0.30205
     1176.5     21.291     108.25       2.32  -0.000489    0.29769
     1176.4     21.859     108.55     2.3283  -0.001308    0.29011
     1176.3     22.518     108.63     2.3346  -0.001465    0.28235
     1176.2     23.239     108.61     2.3378  -0.000635    0.27896
     1176.1     23.898     108.57     2.3411   0.001129    0.27725
       1176      24.47     108.52     2.3448   0.003383    0.27601
     1175.9     25.013     108.44     2.3495   0.005604    0.27608
     1175.8     25.507     108.35     2.3568   0.007469    0.27764
     1175.7     25.889     108.29     2.3634    0.00889    0.28197
     1175.6     25.927     108.27     2.3657   0.009599    0.28832
     1175.5      25.38     108.27     2.3627   0.009184    0.29252
     1175.4     24.471     108.29     2.3511   0.007601    0.29398
     1175.3     23.696     108.37     2.3326   0.005228    0.29735
     1175.2     23.325     108.68      2.318   0.002451     0.3058
     1175.1     23.347     109.44     2.3132  -0.000478    0.31506
       1175     23.525     110.77     2.3144  -0.003303    0.31992
     1174.9      23.68     112.62     2.3167  -0.005895    0.32092
     1174.8     24.101     114.72     2.3196  -0.008147    0.31832
     1174.7     25.082      116.8     2.3237   -0.00979    0.31024
     1174.6     26.442     118.79     2.3265  -0.010446    0.29705
     1174.5     27.825     120.32     2.3253  -0.009777    0.28375
     1174.4         29     120.95     2.3168  -0.007761    0.27778
     1174.3     29.781     120.75     2.2997  -0.004712    0.28295
     1174.2     29.897     120.17     2.2829  -0.001188    0.29368
     1174.1     29.281     119.48     2.2755   0.002663    0.30337
       1174     28.308     118.72     2.2747   0.007358    0.31298
     1173.9     27.321     117.78     2.2769   0.012848    0.32405
     1173.8     26.249     116.63     2.2817   0.017964    0.33487
     1173.7     24.963     115.44     2.2861   0.021157    0.34197
     1173.6     23.697     114.39     2.2914    0.02175    0.34229
     1173.5     22.748     113.49     2.3008   0.020351    0.33612
     1173.4     22.207     112.81     2.3115   0.017848    0.32845
     1173.3     21.938     112.32     2.3213   0.014781    0.32419
     1173.2      21.88      111.9     2.3307   0.011924    0.32458
     1173.1     22.125     111.49     2.3391   0.010024    0.32568
       1173     22.647     110.94     2.3458   0.009472    0.32056
     1172.9     23.266     110.15     2.3507   0.010439    0.30692
     1172.8     23.736     109.44     2.3558   0.012782    0.29401
     1172.7     23.783     108.95     2.3616   0.016258    0.28704
     1172.6     23.174     108.64      2.366   0.019804    0.28297
     1172.5     22.099     108.49     2.3666   0.022501    0.27738
     1172.4     21.039      108.6     2.3658   0.023456    0.27275
     1172.3     20.538     109.05      2.367   0.022264    0.27552
     1172.2     20.836     109.66     2.3664   0.020335    0.28293
     1172.1      21.66      110.2      2.361   0.019898     0.2886
       1172     22.446     110.57     2.3523   0.019951    0.28933
     1171.9     23.027      110.9     2.3413   0.018942    0.28929
