~Version ---------------------------------------------------
VERS.     2.0 : CWLS log ASCII Standard -VERSION 2.0
WRAP.      NO : ONE LINE PER DEPTH STEP
~Well ------------------------------------------------------
STRT.M                       1890.7 : First Index Value
STOP.M                    1974.8001 : Last Index Value
STEP.M          0.09999999999990905 : Frame Spacing
NULL.                       -999.25 : Absent Value
WELL.                        GRW-01 : Well Name
FLD .     LEEUWARDEN 101 ROTLIEGEND : Field Name
CNTY.                               : County
STAT.                               : State
CTRY.                               : Country
LOC .                               : Location
API .                               : API Number
DATE.                               : Date
COMP.                           PET : Company Name
SRVC.                               : Service Company
~Curves ----------------------------------------------------
DEPT.M         : 
GR  .GAPI      : 
DT  .US/F      : 
RHOB.G/C3      : 
DRHO.G/C3      : 
NPHI.V/V       : 
~Params ----------------------------------------------------
TDD .M            1980.0 : Total Depth (Driller)
UBID.               1348 : Unique Borehole Id
PDAT.     Mean Sea Level : Permanent Datum
EPD .M               0.0 : Elevation of Permanent Datum (PDAT) above Mean Sea Level
LMF .                    : Logging Measured From (Name of Logging Elevation Reference)
APD .M               5.0 : Elevation of Depth Reference (LMF) Above Permanent Datum
~Other -----------------------------------------------------
~ASCII -----------------------------------------------------
# ...
     1914.7      93.13      107.4     2.2553   0.026087    0.38799
     1914.8     95.012      107.7     2.2634   0.027896    0.39198
     1914.9     97.009     108.07     2.2653    0.02854    0.39443
       1915     99.405     108.45     2.2643   0.028173    0.39527
     1915.1     102.32     108.62     2.2637   0.027582    0.39418
     1915.2     105.07     108.75     2.2637   0.027833    0.39019
     1915.3     107.07     108.94     2.2632   0.029476    0.38398
     1915.4     108.08     109.15     2.2602   0.031557    0.37735
     1915.5     108.15     109.29     2.2542   0.033671    0.37133
     1915.6     107.89     109.31     2.2451   0.035878    0.36948
     1915.7     108.08     109.24     2.2351   0.038017    0.37337
     1915.8     108.82     109.12     2.2272   0.040035    0.38256
     1915.9        110     109.08      2.223   0.041662    0.39271
       1916     111.53     109.02     2.2211   0.042864    0.40281
     1916.1     112.98     108.91     2.2186   0.043607    0.41266
     1916.2     113.89     108.96     2.2131    0.04174       0.42
     1916.3     113.47     109.08     2.2038   0.035885    0.42144
     1916.4     111.76     109.21     2.1932   0.027983     0.4215
     1916.5     109.23     109.62      2.183   0.017879     0.4215
     1916.6      106.6     110.15     2.1761   0.008192    0.42148
     1916.7     104.15     110.52     2.1727  -0.002293    0.42109
     1916.8     102.59     110.89     2.1715  -0.008007    0.41925
     1916.9     102.13     111.49     2.1697  -0.011337    0.41492
       1917     102.02     111.68     2.1666  -0.012816    0.40897
     1917.1     101.63     111.73     2.1624  -0.011459    0.40406
     1917.2     100.63     111.84       2.16  -0.004892    0.39954
     1917.3     99.445     111.67     2.1611   0.005463    0.39708
     1917.4     98.246     111.36      2.166   0.017923    0.40491
     1917.5     97.308     110.71     2.1731   0.028844     0.4214
     1917.6     97.174     110.47     2.1793   0.033818    0.44155
     1917.7     97.326     110.26     2.1835   0.034239       0.45
     1917.8     97.463     110.06     2.1829    0.02497    0.45348
     1917.9     97.286     109.94     2.1813   0.014432    0.45688
       1918     97.177     110.13     2.1845   0.003751    0.45671
     1918.1     96.984      110.3     2.1956  -0.007003    0.44442
     1918.2     97.267     110.52     2.2169  -0.015982    0.42749
     1918.3     98.059     110.68      2.249  -0.017915    0.41075
     1918.4     99.373     110.65     2.2796  -0.017002     0.3961
     1918.5     100.83     110.39     2.3032  -0.016954    0.38261
     1918.6     101.94     109.79     2.3107  -0.016898     0.3741
     1918.7     102.31     109.19     2.3097  -0.016934    0.37281
     1918.8     101.76     108.42     2.2945  -0.019248    0.37899
     1918.9     101.26     106.93     2.2782  -0.029925    0.38595
       1919     100.62     106.02     2.2672  -0.033279    0.39049
     1919.1     100.28     104.96     2.2664  -0.036146    0.39059
     1919.2     100.67     104.24     2.2767  -0.036393    0.38647
     1919.3     101.28      103.9     2.2977  -0.025601    0.38048
     1919.4     101.93     103.94     2.3238  -0.013705    0.37438
     1919.5     102.39      104.2     2.3444  -0.004225    0.36801
     1919.6     102.33     104.81     2.3558  -0.002314    0.36287
     1919.7     102.06     105.37     2.3614   -0.00296    0.36106
     1919.8     102.08      105.7     2.3614  -0.002693    0.36191
     1919.9     102.15     105.61     2.3607  -0.001636    0.36357
       1920     102.12      105.1     2.3616  -0.000664    0.36445
     1920.1     101.72     104.64     2.3626   0.000146    0.36393
     1920.2     100.92     104.27     2.3601  -0.001015    0.36165
     1920.3     99.501     104.11     2.3531  -0.007296    0.35912
     1920.4     97.447     104.14     2.3426  -0.013566     0.3567
     1920.5     95.353     104.29     2.3303  -0.018454    0.35617
     1920.6     93.581     104.39      2.322  -0.018368    0.36073
     1920.7     93.003     104.82     2.3168  -0.016894    0.36849
     1920.8     94.031     105.41     2.3168  -0.016399    0.38006
     1920.9      96.28     106.06     2.3171  -0.016924    0.38953
       1921     99.756     106.77     2.3159  -0.017019    0.39248
     1921.1     102.88     107.24     2.3142  -0.017574     0.3903
     1921.2     105.13     107.31     2.3142   -0.01939    0.37707
     1921.3     106.76     106.79     2.3156  -0.021735    0.36251
     1921.4     107.23     106.08     2.3186   -0.02423    0.34937
     1921.5     106.82        105     2.3227  -0.026942    0.33738
     1921.6     105.77     103.59     2.3266  -0.030171    0.32799
     1921.7     103.77     102.02     2.3301   -0.03398    0.32054
     1921.8     101.23     100.59     2.3336  -0.037697    0.31448
     1921.9     98.193     99.585     2.3388  -0.040164    0.30969
       1922     95.843     98.564      2.348  -0.039674    0.30528
     1922.1     94.214     97.366     2.3631  -0.036046    0.30024
     1922.2     93.614     96.398     2.3834  -0.032044    0.29476
     1922.3     94.264     95.564      2.403  -0.029534    0.29029
     1922.4     95.357     94.819     2.4176  -0.029098    0.28721
     1922.5     95.999     94.129     2.4252  -0.029451    0.28407
     1922.6     95.624     93.487     2.4268  -0.031148     0.2819
     1922.7     94.115     93.161     2.4259  -0.034374     0.2815
     1922.8     91.711     93.232     2.4239   -0.03798    0.28273
     1922.9     89.544     93.571     2.4207   -0.04174    0.28425
       1923     87.776      93.66     2.4169  -0.046397    0.28386
     1923.1     86.349     93.289     2.4138  -0.052878    0.28098
     1923.2     86.383     92.355     2.4121  -0.055341    0.27659
     1923.3     87.588     91.026     2.4091  -0.048486     0.2721
     1923.4     88.986     89.665     2.4004  -0.034741    0.26792
     1923.5     89.955     87.895     2.3825  -0.018695    0.26385
     1923.6     90.466     86.275     2.3569  -0.007033    0.25964
     1923.7     90.567     85.734     2.3265  -0.008157    0.25433
     1923.8      90.35     86.514     2.2968  -0.020526     0.2478
     1923.9     89.871     87.911      2.271  -0.036755    0.24202
       1924      89.25     89.305     2.2482  -0.052904     0.2375
     1924.1     87.976     90.672     2.2299  -0.066821    0.23341
     1924.2     86.082     92.275     2.2175  -0.078699    0.23079
     1924.3     84.057     93.916     2.2119  -0.088113    0.23054
     1924.4     81.658     94.848     2.2136  -0.095091    0.23179
     1924.5     78.938     95.014     2.2244   -0.10104    0.23365
     1924.6     76.708      94.63      2.248   -0.10722    0.23763
     1924.7     75.615     93.843     2.2875   -0.11259    0.24748
     1924.8     76.219     92.567     2.3419   -0.11422    0.26383
     1924.9     80.454     91.243     2.4067   -0.11176     0.2831
       1925     88.241     90.522     2.4745   -0.10621    0.30228
     1925.1     97.361     90.124     2.5396   -0.09806    0.32006
     1925.2     106.85     89.901     2.5928  -0.088846    0.33579
     1925.3     115.31      89.88     2.6211  -0.082404    0.35057
     1925.4     121.61     89.897     2.6228  -0.079173    0.36173
     1925.5     124.24     89.832     2.6043  -0.075757    0.36571
     1925.6     123.03      89.59     2.5748  -0.071945     0.3597
     1925.7     119.86     89.223     2.5447  -0.068137    0.34418
     1925.8     114.53     88.571     2.5177  -0.064302    0.32743
     1925.9     108.88     87.612     2.4957  -0.060748     0.3119
       1926     104.73     87.093     2.4819   -0.05805    0.30099
     1926.1     101.16     86.857      2.475  -0.056353    0.29538
     1926.2     99.197     86.412     2.4738   -0.05677    0.29164
     1926.3     99.382     86.422     2.4768  -0.062137    0.29385
     1926.4     100.96     86.771      2.483  -0.072365    0.29965
     1926.5     103.58     87.518     2.4892  -0.083604    0.30767
     1926.6     106.63     88.696     2.4924  -0.093544    0.32536
