~Version ---------------------------------------------------
VERS.     2.0 : CWLS log ASCII Standard -VERSION 2.0
WRAP.      NO : ONE LINE PER DEPTH STEP
~Well ------------------------------------------------------
STRT.M                       1890.7 : First Index Value
STOP.M                    1974.8001 : Last Index Value
STEP.M          0.09999999999990905 : Frame Spacing
NULL.                       -999.25 : Absent Value
WELL.                        GRW-01 : Well Name
FLD .     LEEUWARDEN 101 ROTLIEGEND : Field Name
CNTY.                               : County
STAT.                               : State
CTRY.                               : Country
LOC .                               : Location
API .                               : API Number
DATE.                               : Date
COMP.                           PET : Company Name
SRVC.                               : Service Company
~Curves ----------------------------------------------------
DEPT.M         : 
GR  .GAPI      : 
DT  .US/F      : 
RHOB.G/C3      : 
DRHO.G/C3      : 
NPHI.V/V       : 
~Params ----------------------------------------------------
TDD .M            1980.0 : Total Depth (Driller)
UBID.               1348 : Unique Borehole Id
PDAT.     Mean Sea Level : Permanent Datum
EPD .M               0.0 : Elevation of Permanent Datum (PDAT) above Mean Sea Level
LMF .                    : Logging Measured From (Name of Logging Elevation Reference)
APD .M               5.0 : Elevation of Depth Reference (LMF) Above Permanent Datum
~Other -----------------------------------------------------
~ASCII -----------------------------------------------------
# ...
     1962.7     20.421     49.738     2.7962   -0.10685    0.01318
     1962.8     19.742     49.883     2.7954   -0.10518   0.012365
     1962.9     19.469     49.952     2.8006   -0.10296     0.0123
       1963     19.339     50.099     2.8096  -0.098478     0.0123
     1963.1     19.009     50.129     2.8228  -0.091298     0.0123
     1963.2     18.379     50.145     2.8359  -0.084854     0.0123
     1963.3     17.677     50.164     2.8449  -0.081883     0.0123
     1963.4     17.117     50.184     2.8481  -0.082485     0.0123
     1963.5     16.873     50.203     2.8454  -0.083471   0.012282
     1963.6     17.141     50.223      2.839   -0.08445   0.011923
     1963.7     17.714     50.242     2.8338  -0.085383   0.011215
     1963.8     18.196     50.261     2.8325  -0.086168     0.0111
     1963.9      18.37     50.281     2.8343  -0.086353     0.0111
       1964     18.177     50.355     2.8384  -0.085474     0.0111
     1964.1      17.37     50.475     2.8427  -0.084298     0.0111
     1964.2     16.059       50.5     2.8444  -0.084379     0.0111
     1964.3      14.92     50.501     2.8412  -0.087637     0.0111
     1964.4     14.429     50.502     2.8328  -0.092135     0.0111
     1964.5     14.422     50.439     2.8209  -0.094364     0.0111
     1964.6      14.66     50.266     2.8081  -0.098665     0.0111
     1964.7      15.01     50.129     2.7971   -0.10563     0.0111
     1964.8     15.241       50.1     2.7909   -0.10779     0.0111
     1964.9      15.35     50.165     2.7918   -0.10531     0.0111
       1965     15.619      50.27     2.7999  -0.098695     0.0111
     1965.1      16.11       50.3     2.8131  -0.089564     0.0111
     1965.2      17.06       50.3     2.8287   -0.07975     0.0111
     1965.3     18.342       50.3     2.8428  -0.069797     0.0111
     1965.4     19.298       50.3     2.8512  -0.059926     0.0111
     1965.5     19.664       50.3     2.8529  -0.052321     0.0111
     1965.6     19.509       50.3     2.8491  -0.051356   0.011101
     1965.7     19.089       50.3     2.8408   -0.05678   0.011097
     1965.8     18.591       50.3     2.8312  -0.063273   0.011103
     1965.9     18.263       50.3     2.8256  -0.066378   0.011213
       1966     18.301     50.348     2.8262  -0.064754   0.011763
     1966.1     18.789     50.368     2.8322  -0.060308    0.01399
     1966.2     19.624     50.323     2.8417  -0.055304   0.020021
     1966.3     20.775       50.3     2.8509  -0.050347   0.029778
     1966.4     22.076       50.3     2.8566  -0.045611   0.045631
     1966.5     23.011     50.301     2.8563  -0.042099   0.067772
     1966.6     23.354     50.303     2.8492  -0.040876   0.091947
     1966.7     23.293      50.37     2.8363  -0.041822    0.11584
     1966.8     23.352     50.526     2.8189  -0.043681    0.13739
     1966.9     24.385     50.817     2.7967  -0.046753    0.15369
       1967     26.554     51.407     2.7711  -0.051512     0.1629
     1967.1     29.902     52.221     2.7439  -0.056911    0.16611
     1967.2     34.337     52.973     2.7154  -0.062355    0.16629
     1967.3     38.556     53.537     2.6862  -0.067911    0.16567
     1967.4     42.485     54.039     2.6543  -0.074354     0.1647
     1967.5     46.772     54.408     2.6217  -0.081802     0.1634
     1967.6     50.452     54.434     2.5962   -0.08851    0.16178
     1967.7     52.858     54.135     2.5831  -0.092162    0.15896
     1967.8     54.523     53.666     2.5834  -0.092733    0.15457
     1967.9     56.306     53.181      2.594  -0.090214    0.14937
       1968     58.112       52.6     2.6103  -0.083994     0.1442
     1968.1     59.443     51.979     2.6279  -0.076806    0.13765
     1968.2     60.585     51.514     2.6425  -0.071885    0.13064
     1968.3     61.128      51.14     2.6523   -0.07118    0.12603
     1968.4     61.229     50.777     2.6552  -0.072824     0.1215
     1968.5     61.163     50.639     2.6513  -0.075677    0.11865
     1968.6     60.954     50.584     2.6422  -0.080245    0.11735
     1968.7     60.589     50.969     2.6289  -0.085723     0.1166
     1968.8     59.948     51.705     2.6144  -0.090761    0.11817
     1968.9     59.396     52.387     2.6008  -0.091274    0.12208
       1969     59.209     53.415     2.5927  -0.084885    0.12666
     1969.1     58.924     54.582     2.5922  -0.077496    0.13153
     1969.2     58.859     55.835     2.5981  -0.068799    0.13698
     1969.3     58.948     56.664     2.6079  -0.056913    0.14172
     1969.4     59.088     56.937     2.6137   -0.04521    0.14263
     1969.5     59.183     57.034     2.5975  -0.033938    0.14199
     1969.6     59.391     56.864     2.5396  -0.022508    0.14192
     1969.7     59.303     56.763     2.4523  -0.011193    0.14231
     1969.8     59.087     56.935      2.363    1.9e-05    0.14575
     1969.9     58.812     57.288     2.2961   0.011421    0.15679
       1970     58.283     57.849     2.2355   0.021155    0.17151
     1970.1     57.392     57.617     2.1964   0.025532    0.18677
     1970.2     56.692     57.518     2.1713   0.029528    0.20183
     1970.3     56.762     57.807     2.1603   0.033069    0.21531
     1970.4     57.485     58.575     2.1585    0.03502    0.22351
     1970.5     58.834     59.329     2.1626   0.034947    0.22629
     1970.6     59.206     60.515     2.1725   0.034213    0.22847
     1970.7     59.645      61.92     2.1916   0.030506    0.22919
     1970.8     59.704     64.167     2.2236   0.022965     0.2301
     1970.9     59.439      65.67     2.2734   0.015208     0.2301
       1971     58.896     66.612     2.3294   0.004661    0.23013
     1971.1     58.031     67.262     2.3904  -0.016041    0.23048
     1971.2     56.241     66.915     2.4561  -0.040683     0.2325
     1971.3      55.36     65.764     2.5313  -0.061181    0.23666
     1971.4     54.838     63.852     2.6047  -0.073837     0.2392
     1971.5     54.479     61.333     2.6678  -0.073535    0.24353
     1971.6     53.933     59.281     2.7158  -0.065251    0.24381
     1971.7     53.364     56.986     2.7422  -0.060567    0.24107
     1971.8     52.879     54.251     2.7506  -0.063229    0.23653
     1971.9     52.396     52.973      2.747  -0.064895    0.23001
       1972     52.667     52.212     2.7332  -0.070628    0.22777
     1972.1     53.388     51.508     2.7212  -0.078522    0.22803
     1972.2     55.147     51.299     2.7133  -0.083314    0.22957
     1972.3     57.563     51.265     2.7146  -0.081472    0.23215
     1972.4     58.885       51.1     2.7278  -0.073726    0.23398
     1972.5     59.971     51.065     2.7486   -0.06349    0.23467
     1972.6     59.819     50.828     2.7723  -0.053072    0.23351
     1972.7     59.058     50.508     2.7916  -0.043533    0.23116
     1972.8     58.279     50.501     2.7998  -0.037386    0.22653
     1972.9     57.361      50.56        2.8  -0.037456    0.22477
       1973       58.7     50.843     2.7973  -0.037739    0.22469
     1973.1     59.847     51.175     2.7952  -0.035246    0.22468
     1973.2     61.639     51.337     2.7968  -0.032526    0.22435
     1973.3      63.54      51.49     2.7997  -0.029087    0.22358
     1973.4     65.184     51.502        2.8  -0.025199    0.22349
     1973.5      65.54       51.5     2.7957  -0.025887    0.22351
     1973.6      64.88       51.5     2.7853  -0.029453     0.2235
     1973.7     63.575       51.5      2.771  -0.035616    0.22346
     1973.8     61.959       51.5     2.7542   -0.04238    0.22283
     1973.9      60.89       51.5     2.7379  -0.045161    0.22014
       1974     60.066       51.5     2.7251  -0.046537    0.21517
     1974.1     59.523       51.5     2.7185  -0.047868    0.21001
     1974.2     59.418       51.5     2.7196  -0.047323    0.20627
     1974.3     59.497       51.5     2.7266  -0.043244    0.20222
     1974.4     59.854       51.5      2.737  -0.037421    0.19901
     1974.5     60.345       51.5      2.748  -0.032042    0.20042
     1974.6     60.735       51.5     2.7554  -0.028895    0.20468
