~Version ---------------------------------------------------
VERS.     2.0 : CWLS log ASCII Standard -VERSION 2.0
WRAP.      NO : ONE LINE PER DEPTH STEP
~Well ------------------------------------------------------
STRT.M                       1890.7 : First Index Value
STOP.M                    1974.8001 : Last Index Value
STEP.M          0.09999999999990905 : Frame Spacing
NULL.                       -999.25 : Absent Value
WELL.                        GRW-01 : Well Name
FLD .     LEEUWARDEN 101 ROTLIEGEND : Field Name
CNTY.                               : County
STAT.                               : State
CTRY.                               : Country
LOC .                               : Location
API .                               : API Number
DATE.                               : Date
COMP.                           PET : Company Name
SRVC.                               : Service Company
~Curves ----------------------------------------------------
DEPT.M         : 
GR  .GAPI      : 
DT  .US/F      : 
RHOB.G/C3      : 
DRHO.G/C3      : 
NPHI.V/V       : 
~Params ----------------------------------------------------
TDD .M            1980.0 : Total Depth (Driller)
UBID.               1348 : Unique Borehole Id
PDAT.     Mean Sea Level : Permanent Datum
EPD .M               0.0 : Elevation of Permanent Datum (PDAT) above Mean Sea Level
LMF .                    : Logging Measured From (Name of Logging Elevation Reference)
APD .M               5.0 : Elevation of Depth Reference (LMF) Above Permanent Datum
~Other -----------------------------------------------------
~ASCII -----------------------------------------------------
# ...
     1926.7     110.84      89.54     2.4894   -0.10164    0.34511
     1926.8     115.59     90.449     2.4755   -0.10733    0.37003
     1926.9     119.05     91.376     2.4448     -0.109    0.38628
       1927     120.95      92.24     2.3983    -0.1096    0.37641
     1927.1     120.61     92.746     2.3454   -0.11027    0.34218
     1927.2      116.4     93.011     2.2919   -0.11096    0.30221
     1927.3     108.53     92.866     2.2458   -0.11165    0.26224
     1927.4     97.966     92.665     2.2015   -0.11236    0.22299
     1927.5     86.869     92.563     2.1694   -0.11319    0.19158
     1927.6     77.195     92.734     2.1476   -0.11432    0.17464
     1927.7     69.864     92.936      2.132   -0.11553    0.16437
     1927.8      63.22      93.09     2.1235   -0.11588    0.16204
     1927.9     59.274      93.04     2.1226    -0.1135    0.16478
       1928     57.553     92.748     2.1321    -0.1092    0.16913
     1928.1     56.511      92.27     2.1549   -0.10404    0.17176
     1928.2     57.708     91.474     2.1878  -0.095408    0.17125
     1928.3     59.423     90.607     2.2293  -0.081517     0.1689
     1928.4     61.546     90.269     2.2727  -0.069918    0.16683
     1928.5     62.949     90.085     2.2963   -0.06682    0.16621
     1928.6     64.382     89.865     2.3009  -0.070911    0.16742
     1928.7     64.487     89.666     2.2948  -0.076757    0.16896
     1928.8     63.947     89.464      2.284  -0.083559    0.17236
     1928.9     63.224     89.258     2.2736  -0.090275     0.1785
       1929     61.963     89.045     2.2653  -0.095749    0.18264
     1929.1     61.795     88.791      2.259  -0.096969     0.1851
     1929.2     61.447     88.068     2.2541   -0.09697    0.18719
     1929.3     60.811       87.9     2.2501  -0.096575    0.18804
     1929.4     60.373       87.9     2.2494  -0.094502    0.18785
     1929.5     60.381     87.901     2.2552    -0.0911    0.18687
     1929.6     60.615     87.941     2.2693  -0.087543    0.18687
     1929.7     60.949     88.245     2.2926  -0.083137    0.18659
     1929.8     61.541     88.938     2.3185  -0.076267    0.18538
     1929.9     62.207     89.245      2.348  -0.069779    0.18391
       1930     63.998     90.058     2.3623  -0.067415    0.18181
     1930.1     66.644     90.948     2.3619  -0.072997    0.18062
     1930.2     68.877     91.899     2.3474  -0.078601     0.1797
     1930.3     70.199     93.904     2.3185  -0.084093    0.17968
     1930.4     69.497     95.044      2.277  -0.089146    0.17941
     1930.5     66.412     95.776     2.2322  -0.094255    0.17839
     1930.6     62.316     96.103     2.1931  -0.098587     0.1765
     1930.7     58.384     96.069      2.162   -0.10012    0.17022
     1930.8     55.672     95.877     2.1403  -0.098752    0.16836
     1930.9     54.239     95.665     2.1261  -0.097102    0.16862
       1931      55.44     95.438     2.1225  -0.094359    0.16941
     1931.1     57.454      95.09     2.1284  -0.090446    0.16909
     1931.2      59.17     94.688     2.1397  -0.087455    0.16742
     1931.3     60.821      94.35     2.1525  -0.089299    0.16334
     1931.4     62.235     93.637     2.1617  -0.095856    0.15874
     1931.5     64.106      93.05     2.1678  -0.096915    0.15507
     1931.6     64.886     92.569     2.1708  -0.096983    0.15188
     1931.7     64.625     92.099     2.1725  -0.096995    0.15188
     1931.8     63.539     91.865     2.1736  -0.096994    0.15304
     1931.9     61.899     91.438     2.1749  -0.096977    0.15456
       1932     61.194     90.734     2.1765  -0.096929    0.15655
     1932.1     61.001     90.536     2.1778  -0.096649    0.15848
     1932.2     60.851     90.446      2.178   -0.09532    0.16188
     1932.3     60.651     90.323      2.177  -0.093423    0.16642
     1932.4     60.323     90.241     2.1759  -0.093036     0.1696
     1932.5     59.666     90.185     2.1761  -0.093014     0.1701
     1932.6     58.445     90.215     2.1783  -0.093012    0.17007
     1932.7     56.386     90.127     2.1831  -0.093032    0.16974
     1932.8     53.966     90.037      2.191  -0.093106    0.16996
     1932.9     52.862     89.927     2.2002  -0.093479    0.17195
       1933     52.918     89.742      2.209  -0.095227    0.17494
     1933.1     54.363     89.376     2.2167  -0.098727     0.1783
     1933.2     56.926     89.143     2.2191   -0.10265    0.18138
     1933.3      59.35       89.1     2.2166    -0.1065    0.18471
     1933.4     61.552       89.1     2.2127   -0.10983    0.18697
     1933.5     62.969       89.1     2.2105   -0.11062    0.18702
     1933.6       62.9     89.169     2.2115   -0.10912    0.18593
     1933.7     61.547     89.407     2.2153    -0.1054    0.18391
     1933.8     59.928     89.776     2.2203  -0.099873    0.18155
     1933.9     58.507     90.247     2.2232  -0.095484    0.17984
       1934      57.46     91.036     2.2219  -0.091583    0.17807
     1934.1     57.411     92.077     2.2186  -0.088857     0.1764
     1934.2     58.575     93.023     2.2168  -0.088687     0.1756
     1934.3     60.119     93.639     2.2174  -0.090067      0.175
     1934.4     61.808     93.936     2.2177  -0.092313    0.17425
     1934.5     63.218     93.999     2.2136  -0.095386    0.17443
     1934.6     63.781     93.797     2.2026   -0.09933    0.17495
     1934.7     63.654     93.429     2.1873   -0.10462    0.17418
     1934.8     63.448      92.96     2.1773   -0.11072     0.1721
     1934.9     63.565     92.076     2.1827   -0.11274    0.16924
       1935     63.953     91.086     2.2045   -0.10816    0.16683
     1935.1     64.394     90.542     2.2336   -0.10125    0.16675
     1935.2     64.475     90.139     2.2589    -0.0957     0.1687
     1935.3     63.806     89.596     2.2773  -0.091745    0.17176
     1935.4      62.56     89.131     2.2914  -0.089302     0.1758
     1935.5     61.226     88.592     2.3035  -0.088995    0.17993
     1935.6     60.229     87.857     2.3143  -0.090246    0.18328
     1935.7     59.911     87.196     2.3231  -0.092001    0.18503
     1935.8     60.295     86.593     2.3283  -0.093375    0.18395
     1935.9     60.968     86.058     2.3303  -0.092903    0.18049
       1936      61.83     85.645     2.3307  -0.090316    0.17637
     1936.1     62.804     85.386     2.3316  -0.086458    0.17185
     1936.2     63.482     85.373     2.3337  -0.080347    0.16638
     1936.3     63.933       85.6     2.3358  -0.071809    0.16008
     1936.4     64.192     85.971     2.3367  -0.062713    0.15399
     1936.5     63.973     86.431     2.3352  -0.056721    0.14954
     1936.6      63.08     86.881     2.3307  -0.059463    0.14715
     1936.7     61.864     87.074     2.3244  -0.071324    0.14457
     1936.8     60.624     86.979     2.3203  -0.090289    0.13871
     1936.9     58.794     86.405     2.3256   -0.11573    0.12973
       1937     56.138     85.323     2.3497   -0.14161    0.12342
     1937.1     52.821     83.745     2.4001   -0.16192    0.11062
     1937.2     49.125     81.419     2.4803   -0.16972   0.084015
     1937.3     44.782     78.803      2.583   -0.15733   0.063282
     1937.4     39.354     75.298      2.689   -0.13004   0.040328
     1937.5     34.021      70.47     2.7703   -0.11571   0.030408
     1937.6     29.312     65.947     2.7986   -0.11234     0.0212
     1937.7     24.845     61.617     2.7999   -0.11354   0.012871
     1937.8     21.013     57.676      2.796   -0.11479   0.011136
     1937.9     18.449     55.275     2.7987   -0.11403    0.01058
       1938      16.72     54.576     2.8111   -0.11014    0.00946
     1938.1     15.858     51.086     2.8267   -0.10323   0.009304
     1938.2     15.572     50.289     2.8426  -0.093826   0.009284
     1938.3     15.574     50.111     2.8514  -0.086601   0.008972
     1938.4     15.685       50.1     2.8525  -0.086683   0.008151
     1938.5     16.041       50.1     2.8489  -0.090442     0.0081
     1938.6     16.163       50.1      2.843  -0.093633   0.008098
